,name,pincode,cuisine,dietaryRestrictions,dishes,features,latitude,longitude,mealType,numberOfReviews,rankingDenominator,rankingPosition,rating,rawRanking,cuisine_category
0,"Absolute Barbecues - Marathahalli, Bengaluru",560037,Indian Barbecue Asian      ,Vegetarian Friendly Vegan Options Halal Gluten Free Options,Noodle Pasta Cheesecake Crab Salad Curry Quail Prawns Octopus Duck Lamb Pesto Cakes Fish Paneer         ,Reservations Seating Parking Available Validated Parking Valet Parking Highchairs Available Wheelchair Accessible Serves Alcohol Accepts Credit Cards Table Service Live Music                  ,12.949864,77.69931,Lunch Dinner    ,816,5993.0,82.0,4.5,4.194001198,Indian
1,Cuppa Redefined - HSR,560102,American Cafe       ,Vegetarian Friendly Vegan Options  ,Burger                       ,Delivery Takeout Reservations Seating Digital Payments Accepts Credit Cards Table Service Live Music                     ,13.007294,77.570076,Breakfast Lunch Dinner Brunch Late Night ,25,5993.0,231.0,5.0,3.492630959,American
2,Bharjari Oota,560004,Indian        ,Vegetarian Friendly Vegan Options  ,                       ,Takeout Seating Table Service                          ,12.94486,77.57205,Breakfast Lunch Dinner   ,21,5993.0,755.0,4.0,3.153523922,Indian
3,The Big Barbeque,560100,Italian Chinese Indian Mediterranean Barbecue Asian   ,Vegetarian Friendly   ,Pasta Crab Salad Chili Curry Prawns Octopus Duck Pesto Fish Paneer             ,Reservations Seating Table Service                          ,12.948556,77.69852,Lunch Dinner    ,45,5993.0,222.0,4.5,3.511242151,Indian
4,Savoury Restaurant,560005,Indian Asian Middle Eastern Arabic     ,Vegetarian Friendly Halal  ,Juice & Smoothies Fish Roti                     ,Delivery Takeout Reservations Buffet Private Dining Seating Parking Available Street Parking Valet Parking Free off-street parking Wheelchair Accessible Accepts Mastercard Accepts Visa Digital Payments Accepts Credit Cards Table Service             ,12.999533,77.61585,Breakfast Lunch Dinner Brunch  ,122,5993.0,253.0,4.0,3.455582619,Indian
5,"Rajdhani Thali Restaurant, Bannerghatta Road, Bangalore",,Indian        ,Vegetarian Friendly Vegan Options  ,Thali Roti                      ,Takeout Reservations Seating Table Service                         ,12.85898,77.56951,Lunch Dinner    ,78,6520.0,350.0,4.0,3.352989435,Indian
6,The Black Rabbit,560038,Bar European Pub      ,Vegetarian Friendly Vegan Options  ,Burger Salad Wings Lamb Fish Pork                  ,Reservations Outdoor Seating Seating Valet Parking Wheelchair Accessible Serves Alcohol Full Bar Table Service                     ,12.89501,77.58188,Lunch Dinner Brunch   ,202,5993.0,205.0,4.0,3.578366518,European
7,Blr Brewing Co. - Electronic City,560100,Italian Indian Brew Pub Bar Barbecue Asian Pub  ,Vegan Options   ,                       ,Delivery Takeout Reservations Outdoor Seating Seating Parking Available Television Serves Alcohol Full Bar Wine and Beer Digital Payments Free Wifi Accepts Credit Cards Table Service Live Music Dog Friendly Family style Sports bars           ,12.840307,77.65356,Lunch Dinner Brunch Drinks  ,24,5993.0,356.0,4.5,3.331095695,Indian
8,Chinita Real Mexican Food,560038,Mexican        ,Vegetarian Friendly Vegan Options Gluten Free Options ,Burrito Salad Tacos Chili Nachos Burrito Bowl Beef Pork Enchiladas               ,Delivery Takeout Reservations Seating Accepts Credit Cards Table Service                       ,12.980944,77.637215,Lunch Dinner Brunch   ,109,5993.0,202.0,4.5,3.589483976,Mexican
9,Bheema's,560001,Indian        ,Vegetarian Friendly Vegan Options  ,Chilli Chicken Chili Curry Thali                    ,Delivery Takeout Reservations Seating Table Service                        ,12.975288,77.60364,Lunch Dinner Late Night   ,162,5993.0,186.0,4.0,3.621510506,Indian
10,Iron Hill Bengaluru,,Brew Pub Pub Dining bars      ,   ,                       ,Reservations                            ,12.952731,77.69819,     ,9,5993.0,596.0,4.5,3.203747272,Pub
11,Cafe Noir,560001,French Cafe European      ,Vegetarian Friendly Vegan Options Gluten Free Options ,Juice & Smoothies Sandwiches Pasta Baguette Fish & Chips Burger Salad Crepes Macarons Quiche Macaroons Salmon Toasts Beef Creme Brulee Lamb Pesto Cakes Fish Ratatouille    ,Reservations Outdoor Seating Seating Wheelchair Accessible Serves Alcohol Table Service                       ,12.971997,77.59595,Breakfast Lunch Dinner Brunch Late Night ,314,5993.0,179.0,4.0,3.64640379,European
12,Melange,560037,Indian Asian       ,Vegetarian Friendly Vegan Options Gluten Free Options ,Ice Cream Juice & Smoothies Pasta Salad Chili Curry Prawns Pesto Cakes Fish              ,Reservations Seating Parking Available Validated Parking Valet Parking Highchairs Available Wheelchair Accessible Serves Alcohol Table Service                    ,12.950342,77.69829,Breakfast Lunch Dinner Brunch Drinks ,264,5993.0,39.0,4.5,4.728266239,Indian
13,The Merak Brewhouse,560001,        ,   ,                       ,Reservations Outdoor Seating Private Dining Seating Parking Available Valet Parking Highchairs Available Wheelchair Accessible Serves Alcohol Full Bar Wine and Beer Free Wifi Accepts Credit Cards Table Service Live Music Waterfront             ,12.97118,77.59769,Lunch Dinner Late Night Drinks  ,44,5993.0,136.0,5.0,3.797733784,Generic
14,Social Whitefield,560048,Bar Asian Pub      ,   ,Burger Wings Chili                     ,Reservations Seating Serves Alcohol Full Bar Table Service                        ,12.997407,77.696335,Lunch Dinner Brunch   ,118,5993.0,486.0,3.5,3.245129824,Asian
15,Food Street / Thindi Bheedi,560004,Indian Fast Food Healthy      ,Vegetarian Friendly Vegan Options  ,Juice & Smoothies Noodle Salad Cakes Roti Pav Bhaji                  ,Takeout Street Parking Digital Payments Cash Only Drive Thru Family style                       ,12.951469,77.57745,Dinner Late Night    ,220,5993.0,173.0,4.0,3.66583395,Indian
16,Ebony Restaurant,560001,Indian Asian       ,Vegetarian Friendly Vegan Options Gluten Free Options ,Salad Chili Curry Beef Fish Paneer Roti                 ,Takeout Reservations Outdoor Seating Buffet Seating Parking Available Validated Parking Valet Parking Wheelchair Accessible Serves Alcohol Full Bar Accepts American Express Accepts Mastercard Accepts Visa Accepts Credit Cards Table Service             ,12.975222,77.60513,Lunch Dinner    ,340,5993.0,155.0,4.0,3.716874361,Indian
17,Vanamo,560008,Cafe International Mediterranean European Healthy    ,   ,                       ,Reservations Outdoor Seating Private Dining Seating Parking Available Validated Parking Valet Parking Wheelchair Accessible Accepts American Express Accepts Mastercard Accepts Visa Digital Payments Free Wifi Accepts Discover Accepts Credit Cards Table Service Family style            ,12.969271,77.64158,Breakfast Lunch Dinner Brunch Drinks ,7,5993.0,497.0,5.0,3.239985704,Mediterranean
18,The Lantern,560025,Chinese Asian Cantonese Szechuan Shanghai Hong Kong   ,Vegetarian Friendly Vegan Options Gluten Free Options ,Noodle Dim Sum Dumplings Lobster Chili Prawns Duck Lamb Fried rice Fish Pork             ,Takeout Reservations Private Dining Seating Parking Available Validated Parking Valet Parking Wheelchair Accessible Serves Alcohol Full Bar Accepts American Express Accepts Mastercard Accepts Visa Cash Only Free Wifi Accepts Credit Cards Table Service            ,12.968014,77.60145,Lunch Dinner Brunch   ,217,5993.0,111.0,4.5,3.984504938,Chinese
19,Arbor Brewing Company - Brewpub & Eatery,560038,American Bar Pub Gastropub     ,Vegetarian Friendly Vegan Options Gluten Free Options ,Pasta Chicken Wings Burger Salad Tacos Wings Calamari Nachos Prawns Lamb Pesto Fish Pork           ,Reservations Outdoor Seating Seating Parking Available Validated Parking Valet Parking Television Serves Alcohol Full Bar Accepts Credit Cards Table Service                  ,12.970209,77.610825,Lunch Dinner Brunch Late Night Drinks ,636,5993.0,92.0,4.0,4.117317677,American
20,Bistro Claytopia,560034,American Cafe       ,Vegetarian Friendly   ,Sandwiches Pasta Burger Salad Pesto                   ,Delivery Takeout Reservations Outdoor Seating Seating Table Service                       ,12.925585,77.63349,Lunch Dinner Brunch Late Night  ,102,5993.0,353.0,4.0,3.335356712,American
21,Wabi Sabi,560001,Chinese Japanese Sushi Asian Shanghai    ,Vegetarian Friendly Vegan Options  ,Noodle Lobster Sashimi                     ,Reservations Seating Serves Alcohol Accepts Credit Cards Table Service                        ,12.973068,77.61802,Lunch Dinner    ,49,5993.0,128.0,5.0,3.824762106,Chinese
22,7rivers Brewing Co,560001,Italian Chinese Indian Brew Pub Bar Contemporary   ,Vegetarian Friendly   ,                       ,Reservations Seating Serves Alcohol Accepts Credit Cards Table Service                        ,12.97326,77.61967,Lunch Dinner    ,51,76.0,3.0,5.0,4.20030117,Indian
23,"Oia, Hennur Main Road, Airport road",560077,Italian Indian Pub Gastropub     ,   ,                       ,Reservations Outdoor Seating Private Dining Seating Valet Parking Wheelchair Accessible Serves Alcohol Full Bar Wine and Beer Accepts Credit Cards                   ,13.073504,77.651085,Lunch Dinner Drinks   ,9,5993.0,1737.0,3.5,3.0563972,Indian
24,Mamagoto,560038,Chinese Asian Thai Szechuan Singaporean Shanghai Hong Kong  ,Vegetarian Friendly Vegan Options  ,Noodle Dumplings Pad Thai Shrimp Tempura Ramen Salad Chili Laksa Curry Prawns Lamb Fried rice Fish          ,Delivery Takeout Reservations Seating Valet Parking Serves Alcohol Table Service                      ,12.970122,77.63923,Lunch Dinner    ,192,5993.0,210.0,4.0,3.56443572,Chinese
25,Kapoor's Cafe,560066,Indian Asian       ,Vegetarian Friendly Vegan Options  ,Paneer Roti                      ,Delivery Takeout Seating Parking Available Accepts Credit Cards Table Service                       ,12.956111,77.72001,Breakfast Lunch Dinner Brunch  ,150,5993.0,242.0,4.0,3.467400074,Indian
26,Rajdhani Thali,560055,Indian        ,Vegetarian Friendly Vegan Options  ,Curry Thali Roti                     ,Reservations Seating Wheelchair Accessible Table Service                         ,13.011042,77.55502,Lunch Dinner    ,105,5993.0,344.0,4.0,3.341884851,Indian
27,Eden Park Bar And Restaurant,560052,Indian        ,Vegetarian Friendly Vegan Options  ,Fish                       ,Takeout Reservations Seating Parking Available Validated Parking Serves Alcohol Full Bar Table Service                     ,12.983494,77.59871,Lunch Dinner    ,65,5993.0,455.0,4.0,3.259193897,Indian
28,Shao,560037,Chinese Asian Thai Cantonese Szechuan Shanghai Hong Kong  ,Vegetarian Friendly Vegan Options Gluten Free Options ,Noodle Dim Sum Tempura Chili Curry Prawns Beef Lamb Fried rice Pork Hot and Sour Soup             ,Reservations Seating Validated Parking Wheelchair Accessible Serves Alcohol Full Bar Table Service                      ,12.950286,77.69859,Lunch Dinner    ,167,5993.0,61.0,4.5,4.456302166,Chinese
29,The Grill House,560001,American Steakhouse Bar International Barbecue Pub   ,Vegetarian Friendly   ,Pasta Burger Wings Nachos Beef Lamb Pesto Fish                ,Takeout Reservations Seating Television Serves Alcohol Full Bar Table Service                      ,12.975105,77.62,Lunch Dinner Late Night   ,103,5993.0,280.0,4.0,3.412070751,Barbecue
30,Eshanya,,Indian Asian       ,Vegetarian Friendly Vegan Options Gluten Free Options ,Curry Thali Roti                     ,Reservations Seating Table Service                          ,12.923056,77.59321,Lunch Dinner    ,109,5993.0,494.0,4.0,3.240929604,Indian
31,Toscano,560001,Italian Pizza European      ,Vegetarian Friendly Vegan Options Gluten Free Options ,Pasta Cheesecake Lasagne Salad Risotto Tiramisu Minestrone Salmon Beef Lamb Antipasti Pesto Fish Penne Pepperoni Pizza         ,Takeout Reservations Outdoor Seating Seating Parking Available Highchairs Available Wheelchair Accessible Serves Alcohol Full Bar Accepts Credit Cards Table Service Live Music                 ,12.971995,77.59605,Lunch Dinner Brunch Late Night  ,428,5993.0,97.0,4.0,4.100059509,Italian
32,1947 Restaurant,560070,Indian Asian       ,Vegetarian Friendly Vegan Options  ,                       ,Delivery Takeout Reservations Seating Table Service                        ,12.922704,77.556435,Lunch Dinner Brunch   ,55,5993.0,326.0,4.0,3.358010054,Indian
33,China Pearl,560095,Chinese Asian Cantonese Szechuan Shanghai Hong Kong   ,Vegetarian Friendly   ,Noodle Crab Prawns Lamb Fried rice Fish Paneer                 ,Delivery Takeout Reservations Seating Table Service                        ,12.936072,77.6214,Lunch Dinner Late Night   ,204,5993.0,165.0,4.0,3.686296463,Chinese
34,Yauatcha,560043,Chinese Asian Cantonese Shanghai Hong Kong    ,Vegetarian Friendly Vegan Options Gluten Free Options ,Noodle Dim Sum Dumplings Kung Pao Chicken Ribs Shrimp Salad Chili Curry Macarons Macaroons Prawns Toasts Duck Lamb Cakes Fried rice Fish Pork Hot and Sour Soup    ,Takeout Reservations Seating Parking Available Validated Parking Valet Parking Wheelchair Accessible Serves Alcohol Full Bar Wine and Beer Accepts American Express Accepts Mastercard Accepts Visa Digital Payments Free Wifi Accepts Credit Cards Table Service Family style           ,12.973019,77.62044,Lunch Dinner Late Night   ,317,5993.0,84.0,4.5,4.183969021,Chinese
35,Sattvam,560078,Indian Asian       ,Vegetarian Friendly Vegan Options  ,Ice Cream Roti                      ,Reservations Seating Table Service                          ,12.906231,77.58687,Lunch Dinner    ,40,5993.0,472.0,4.0,3.251436472,Indian
36,Udupi Sri Krishna Bhavan,,Indian        ,Vegetarian Friendly Vegan Options  ,                       ,Takeout Seating Table Service                          ,12.946071,77.5704,Breakfast Lunch Dinner Brunch  ,43,5993.0,386.0,4.0,3.305862904,Indian
37,Mynt,560066,Italian Indian International Mediterranean Asian    ,Vegetarian Friendly Vegan Options Gluten Free Options ,Juice & Smoothies Salad Curry Cakes                    ,Reservations Outdoor Seating Buffet Seating Parking Available Validated Parking Valet Parking Wheelchair Accessible Serves Alcohol Full Bar Wine and Beer Accepts American Express Accepts Mastercard Accepts Visa Digital Payments Accepts Credit Cards Table Service Dog Friendly Non-smoking restaurants          ,12.98679,77.737434,Breakfast Lunch Dinner Brunch Late Night Drinks,121,5993.0,226.0,4.0,3.501103163,Indian
38,Zaitoon,560008,Indian Barbecue Middle Eastern      ,Vegetarian Friendly Halal  ,Shawarma Hummus Fish                     ,Delivery Takeout Reservations Seating Parking Available Table Service                       ,12.959722,77.64699,Lunch Dinner    ,143,5993.0,284.0,4.0,3.406517744,Indian
39,Zen,560008,Chinese Japanese Sushi Asian Thai Cantonese Szechuan Shanghai Hong Kong,Vegetarian Friendly Vegan Options Halal Gluten Free Options,Noodle Dim Sum Dumplings Pad Thai Tempura Salad Chili Cod Salmon Prawns Fried rice Sashimi Fish           ,Takeout Reservations Outdoor Seating Buffet Seating Parking Available Validated Parking Valet Parking Highchairs Available Wheelchair Accessible Serves Alcohol Full Bar Free Wifi Table Service               ,12.961097,77.64892,Lunch Dinner Brunch Late Night  ,316,5993.0,56.0,4.5,4.535625458,Chinese
40,1522 - The Pub,560034,Indian Bar Pub      ,Vegetarian Friendly Vegan Options  ,Paneer                       ,Reservations Seating Television Serves Alcohol Full Bar Table Service                       ,13.032792,77.569305,Dinner     ,56,5993.0,274.0,4.0,3.335628033,Indian
41,Europa 360,560037,Steakhouse        ,   ,Salad Lamb chops Lamb                     ,Reservations Seating Parking Available Wheelchair Accessible Serves Alcohol Full Bar Table Service                      ,12.950527,77.6984,Dinner     ,85,5993.0,138.0,4.5,3.786862612,Steakhouse
42,Herbs & Spices,560066,Indian Diner       ,Vegetarian Friendly Vegan Options  ,Pasta Curry Beef Pesto Fish Paneer                  ,Delivery Reservations Outdoor Seating Seating Parking Available Validated Parking Wheelchair Accessible Serves Alcohol Table Service                    ,12.968172,77.75077,Lunch Dinner Brunch Late Night  ,162,5993.0,235.0,4.0,3.486525059,Indian
43,Sarjapur Social,560035,Indian Bar International Asian Pub    ,   ,                       ,Delivery Takeout Reservations Seating Wheelchair Accessible Serves Alcohol Full Bar Wine and Beer Free Wifi Table Service Family style                  ,12.909862,77.68558,Breakfast Lunch Dinner   ,27,5993.0,508.0,4.0,3.235856295,Indian
44,JW Kitchen,560001,Indian International Asian      ,Vegetarian Friendly Vegan Options Gluten Free Options ,Juice & Smoothies Noodle Pasta Lasagne Salad Pancakes Waffles Curry Pesto Cakes Fish Paneer Roti           ,Reservations Outdoor Seating Seating Parking Available Validated Parking Valet Parking Highchairs Available Wheelchair Accessible Full Bar Wine and Beer Accepts American Express Accepts Mastercard Accepts Visa Digital Payments Free Wifi Accepts Credit Cards Live Music Drive Thru           ,12.972428,77.5947,Breakfast Lunch Dinner Brunch Drinks ,574,5993.0,55.0,4.5,4.549291611,Indian
45,Nagarjuna Restaurant,560025,Indian Asian       ,Vegetarian Friendly Vegan Options  ,                       ,Takeout Reservations Seating Table Service                         ,12.91565,77.59999,Lunch Dinner    ,44,5993.0,463.0,4.0,3.255986929,Indian
46,Edo - Japanese Restaurant and Bar,560025,Seafood Sushi Asian      ,Vegetarian Friendly Vegan Options Gluten Free Options ,Noodle Cheesecake Crab Tempura Udon & Soba (Wheat & Buckwheat Noodle) Ramen Bento (Lunch Box) Salad Tiramisu Cod Salmon Tuna Prawns Fish Soup Uramaki Lamb Udon Gyoza Fried rice Sashimi Fish Pork  ,Reservations Outdoor Seating Seating Parking Available Valet Parking Wheelchair Accessible Serves Alcohol Wine and Beer Accepts American Express Accepts Mastercard Accepts Visa Digital Payments Accepts Credit Cards Table Service Family style Gift Cards Available             ,12.967054,77.596115,Lunch Dinner Drinks   ,653,5993.0,33.0,4.5,4.753536701,Asian
47,9th Mile Dhaba,560065,Indian        ,Vegetarian Friendly Vegan Options  ,                       ,Reservations Seating Parking Available Validated Parking Wheelchair Accessible Serves Alcohol Table Service                      ,13.086517,77.5912,Lunch Dinner    ,66,5993.0,258.0,4.0,3.449338675,Indian
48,1947,560003,Indian Asian       ,Vegetarian Friendly Vegan Options  ,Ice Cream Pasta Curry Pesto Paneer Roti                  ,Delivery Takeout Reservations Seating Table Service                        ,13.00573,77.569084,Lunch Dinner Late Night   ,137,5993.0,415.0,3.5,3.283776283,Indian
49,Dum Pukht,560052,Indian        ,Vegetarian Friendly Vegan Options Halal Gluten Free Options,Kabobs Prawns Lamb Fish Paneer Roti                  ,Reservations Private Dining Seating Parking Available Validated Parking Valet Parking Highchairs Available Wheelchair Accessible Serves Alcohol Full Bar Accepts Credit Cards Table Service                 ,12.993986,77.586426,Lunch Dinner    ,338,5993.0,25.0,5.0,4.781230927,Indian
50,Big Pitcher,560008,Brew Pub Bar International Barbecue European    ,Vegetarian Friendly Vegan Options Gluten Free Options ,Juice & Smoothies Pasta Burger Salad Wings Chili Nachos Curry Prawns Beef Lamb Pesto Fish Pork Paneer         ,Takeout Reservations Outdoor Seating Buffet Private Dining Seating Parking Available Validated Parking Valet Parking Television Highchairs Available Serves Alcohol Full Bar Wine and Beer Accepts American Express Accepts Mastercard Accepts Visa Digital Payments Free Wifi Accepts Credit Cards Table Service Live Music       ,12.96015,77.64693,Lunch Dinner Late Night Drinks  ,378,5993.0,134.0,4.0,3.809945345,Barbecue
51,The White Room,560001,Cafe European British      ,Vegetarian Friendly Vegan Options  ,Salad                       ,Reservations Seating Table Service                          ,12.975217,77.60323,Breakfast Lunch Dinner Brunch  ,33,5993.0,480.0,4.0,3.247334242,European
52,The London Curry House,560001,Chinese Indian       ,Vegetarian Friendly Vegan Options  ,Ice Cream Curry Paneer Roti                    ,Reservations Outdoor Seating Seating Valet Parking Highchairs Available Wheelchair Accessible Free Wifi Table Service                     ,12.985436,77.5792,Lunch Dinner Brunch   ,141,5993.0,203.0,4.0,3.588617563,Indian
53,Taiki,560038,Japanese Sushi Asian Thai Korean    ,Vegetarian Friendly Vegan Options  ,Noodle Crab Dumplings Shrimp Tempura Ramen Salad Chili Salmon Tuna Prawns Lamb Gyoza Fish          ,Reservations Seating Street Parking Accepts Credit Cards Table Service                        ,12.976917,77.640755,Lunch Dinner    ,36,5993.0,397.0,4.5,3.293932438,Asian
54,The Punjabi Rasoi,560102,Indian Asian       ,Vegetarian Friendly Vegan Options  ,Tandoori Chicken Curry Paneer Roti                    ,Delivery Takeout Reservations Seating Table Service                        ,12.90836,77.63803,Lunch Dinner    ,171,5993.0,265.0,4.0,3.442203999,Indian
55,Gramin,560095,Indian Asian       ,Vegetarian Friendly Vegan Options  ,Curry Paneer Thali Roti                    ,Delivery Takeout Seating Table Service                         ,12.934721,77.61324,Lunch Dinner Brunch Late Night  ,265,5993.0,211.0,4.0,3.562611103,Indian
56,URU Brewpark,560076,Indian Brew Pub Bar Asian     ,Vegetarian Friendly Vegan Options  ,Pasta Pesto                      ,Takeout Reservations Outdoor Seating Valet Parking Wheelchair Accessible Serves Alcohol Full Bar Free Wifi Table Service                    ,12.88998,77.59776,Lunch Dinner Drinks   ,52,5993.0,529.0,3.5,3.227825642,Indian
57,Sattvam,560080,Indian Asian       ,Vegetarian Friendly Vegan Options Gluten Free Options ,Juice & Smoothies Noodle Pasta Salad Curry Pesto Cakes Paneer Roti               ,Reservations Buffet Seating Parking Available Validated Parking Valet Parking Highchairs Available Wheelchair Accessible Table Service                    ,13.005726,77.58063,Lunch Dinner Brunch   ,359,5993.0,126.0,4.0,3.829896927,Indian
58,Mainland China,560001,Chinese Asian Cantonese Szechuan Shanghai Hong Kong   ,Vegetarian Friendly Vegan Options  ,Noodle Crab Dim Sum Dumplings Salad Chili Curry Prawns Duck Lamb Fried rice Fish Kimchi           ,Delivery Takeout Reservations Buffet Seating Valet Parking Serves Alcohol Table Service                     ,12.975238,77.60349,Lunch Dinner Late Night   ,478,5993.0,143.0,4.0,3.775921345,Chinese
59,Jalpaan Restaurant,560082,Indian International Asian      ,Vegetarian Friendly Vegan Options  ,Pasta Fondue Pesto Paneer Thali Roti                  ,Delivery Takeout Reservations Seating Table Service                        ,12.925232,77.57712,Lunch Dinner    ,81,5993.0,372.0,4.0,3.321882963,Indian
60,Church Street Social,560001,Indian Bar International      ,Vegetarian Friendly Vegan Options  ,Burger Salad Pancakes Wings Nachos Toasts Lamb Fish Paneer               ,Reservations Television Serves Alcohol Full Bar Wine and Beer Family style Sports bars                      ,12.975693,77.60273,Lunch Dinner Drinks   ,376,5993.0,115.0,4.0,3.901406288,Indian
61,Nagarjuna,560027,Indian Asian       ,Vegetarian Friendly Vegan Options Halal ,Chilli Chicken Chili Curry Prawns Lamb Fish Chicken dishes Fish Curry Thali               ,Delivery Takeout Reservations Seating Accepts Credit Cards Table Service                       ,12.973171,77.60925,Lunch Dinner Late Night   ,649,5993.0,87.0,4.0,4.159251213,Indian
62,Phobidden Fruit,560038,Vietnamese        ,Vegetarian Friendly Vegan Options  ,Noodle Crab Ribs Salad Pho Wings Chili Curry Red Curry Lettuce Wraps Prawns Beef Fried rice Fish Pork Noodle Soup        ,Takeout Reservations Outdoor Seating Seating Wheelchair Accessible Serves Alcohol Table Service                      ,12.970047,77.63961,Lunch Dinner Late Night   ,282,5993.0,133.0,4.0,3.814148664,Vietnamese
63,Bene,560055,Italian Pizza Mediterranean European     ,Vegetarian Friendly Vegan Options Gluten Free Options ,Pasta Lasagne Salad Risotto Tiramisu Lamb Antipasti Pesto Cakes Fish              ,Reservations Outdoor Seating Private Dining Seating Parking Available Validated Parking Valet Parking Highchairs Available Wheelchair Accessible Serves Alcohol Full Bar Free Wifi Accepts Credit Cards Table Service               ,13.012473,77.55547,Lunch Dinner Brunch Late Night  ,329,5993.0,54.0,4.5,4.566536427,Italian
64,Rajdhani,560001,Indian Asian       ,Vegetarian Friendly Vegan Options Gluten Free Options ,Salad Curry Paneer Thali Roti                   ,Takeout Reservations Seating Parking Available Highchairs Available Wheelchair Accessible Table Service                      ,12.97116,77.59769,Lunch Dinner Late Night   ,642,5993.0,116.0,4.0,3.892629385,Indian
65,Millers 46,560046,American Steakhouse       ,Vegetarian Friendly   ,Pasta Chicken Wings Cheesecake Burger Ribs T-Bone Steak Salad Wings Prawns French Fries Beef Lamb Pesto Fish Pork         ,Delivery Takeout Reservations Seating Serves Alcohol Full Bar Table Service                      ,12.991574,77.59416,Lunch Dinner Brunch Late Night  ,309,5993.0,124.0,4.0,3.843031406,American
66,Kamat Lokaruchi,,Indian Asian       ,Vegetarian Friendly Vegan Options Gluten Free Options ,Juice & Smoothies Curry Thali Roti                    ,Takeout Outdoor Seating Seating Parking Available Accepts Credit Cards Table Service                       ,12.700336,77.25161,Breakfast Lunch Dinner Brunch Late Night ,302,5993.0,181.0,4.0,3.643793583,Indian
67,The Druid Garden,560092,Indian Brew Pub Bar International     ,Vegetarian Friendly Vegan Options Gluten Free Options ,Pasta Crab Burger Salad Tacos Curry Prawns Beef Pesto Fried rice Fish Pork Paneer           ,Delivery Takeout Reservations Seating Parking Available Street Parking Valet Parking Television Highchairs Available Wheelchair Accessible Serves Alcohol Full Bar Wine and Beer Accepts American Express Accepts Mastercard Accepts Visa Digital Payments Accepts Credit Cards Table Service Family style Non-smoking restaurants        ,13.063616,77.59127,Lunch Dinner Drinks   ,438,5993.0,49.0,4.5,4.675207615,Indian
68,Dakshin,560052,Indian        ,Vegetarian Friendly Vegan Options Gluten Free Options ,Crab Curry Prawns Lamb Fish Fish Curry Thali Payasam                ,Reservations Seating Parking Available Validated Parking Valet Parking Highchairs Available Wheelchair Accessible Serves Alcohol Accepts Credit Cards Table Service                   ,12.994166,77.58559,Lunch Dinner    ,715,5993.0,41.0,5.0,4.726513386,Indian
69,Caraway Kitchen,560008,American Indian Seafood European Asian    ,Vegetarian Friendly Vegan Options Gluten Free Options ,Pasta Lobster Salad Waffles Pesto Cakes Fish                 ,Reservations Seating Parking Available Validated Parking Highchairs Available Wheelchair Accessible Serves Alcohol Full Bar Table Service                    ,12.975461,77.620766,Breakfast Lunch Dinner Brunch Drinks ,329,5993.0,35.0,5.0,4.734867096,Indian
70,The Hebbal Cafe,560045,Indian Cafe Asian      ,Vegetarian Friendly Vegan Options  ,                       ,Delivery Reservations Buffet Private Dining Seating Wheelchair Accessible Serves Alcohol Wine and Beer Digital Payments Accepts Credit Cards Table Service Family style Non-smoking restaurants                ,13.04204,77.61334,Breakfast Lunch Brunch Drinks  ,46,6520.0,205.0,4.5,3.600690126,Indian
71,Feast,560055,Indian Bar International Asian     ,Vegetarian Friendly Vegan Options Gluten Free Options ,Pasta Salad Waffles Curry Prawns Pesto Cakes Fish Pork Paneer              ,Reservations Private Dining Seating Parking Available Validated Parking Valet Parking Highchairs Available Wheelchair Accessible Serves Alcohol Full Bar Digital Payments Free Wifi Accepts Credit Cards Table Service Live Music              ,13.012422,77.55477,Breakfast Lunch Dinner Brunch  ,625,5993.0,51.0,4.5,4.612602711,Indian
72,Kappa Chakka Kandhari,560095,Indian Asian       ,Vegetarian Friendly Vegan Options  ,Curry Prawns Fish                     ,Delivery Takeout Reservations Seating Table Service                        ,12.940622,77.62348,Lunch Dinner    ,36,5993.0,225.0,4.5,3.502747059,Indian
73,Caprese,560052,Italian European       ,Vegetarian Friendly Vegan Options Gluten Free Options ,Pasta Salad Risotto Tiramisu Prawns Lamb Pesto                 ,Reservations Outdoor Seating Seating Parking Available Validated Parking Valet Parking Highchairs Available Wheelchair Accessible Serves Alcohol Full Bar Free Wifi Table Service                 ,12.992222,77.588394,Lunch Dinner    ,249,5993.0,38.0,5.0,4.729028225,Italian
74,Citrus at the Leela Palace Bangalore,560008,Indian International       ,Vegetarian Friendly Vegan Options Halal Gluten Free Options,Juice & Smoothies Pasta Burger Salad Prawns Beef Lamb Pesto Cakes Fish              ,Reservations Outdoor Seating Private Dining Seating Parking Available Validated Parking Valet Parking Highchairs Available Wheelchair Accessible Serves Alcohol Full Bar Free Wifi Accepts Credit Cards Table Service Live Music              ,12.960232,77.64854,Breakfast Lunch Dinner Brunch Late Night ,607,5993.0,50.0,4.5,4.632314205,Indian
75,M Cafe,560066,Indian International Asian      ,Vegetarian Friendly Vegan Options Halal Gluten Free Options,Juice & Smoothies Noodle Pasta Salad Curry Lamb Pesto Cakes Fish Paneer              ,Reservations Outdoor Seating Private Dining Seating Parking Available Validated Parking Valet Parking Highchairs Available Wheelchair Accessible Serves Alcohol Full Bar Free Wifi Accepts Credit Cards Table Service               ,12.979564,77.72826,Breakfast Lunch Dinner Brunch Late Night Drinks,727,5993.0,47.0,4.5,4.687880039,Indian
76,Yataii,560052,Japanese Sushi Asian      ,Vegetarian Friendly Vegan Options Gluten Free Options ,Noodle Tempura Ramen Salad Salmon Tuna Prawns Gyoza Sashimi Fish Pork             ,Reservations Outdoor Seating Seating Parking Available Validated Parking Valet Parking Highchairs Available Wheelchair Accessible Serves Alcohol Full Bar Free Wifi Accepts Credit Cards Table Service                ,12.991961,77.588104,Lunch Dinner    ,221,5993.0,45.0,5.0,4.706502438,Asian
77,The Creek,560066,Indian Bar International Grill     ,Vegetarian Friendly Vegan Options Halal Gluten Free Options,Pasta Salad Lamb Pesto                    ,Reservations Outdoor Seating Buffet Seating Parking Available Validated Parking Valet Parking Highchairs Available Serves Alcohol Full Bar Wine and Beer Digital Payments Free Wifi Accepts Credit Cards Table Service              ,12.987164,77.73316,Breakfast Lunch Dinner Brunch Late Night Drinks,728,5993.0,16.0,5.0,4.810488701,Indian
78,Sultans of Spice,560095,Indian Asian Afghan      ,Vegetarian Friendly Vegan Options Halal ,Salad Fish Paneer Roti                    ,Delivery Takeout Reservations Seating Parking Available Validated Parking Valet Parking Serves Alcohol Full Bar Accepts American Express Accepts Mastercard Accepts Visa Accepts Credit Cards Table Service               ,12.933427,77.61513,Lunch Dinner Late Night   ,148,5993.0,212.0,4.0,3.561003447,Indian
79,Tamarind,560300,Indian        ,Vegetarian Friendly Vegan Options Gluten Free Options ,                       ,Reservations Seating Validated Parking Wheelchair Accessible Serves Alcohol Full Bar Wine and Beer Table Service                     ,13.197349,77.711105,Lunch Dinner    ,145,5993.0,29.0,5.0,4.765840054,Indian
80,Mahesh Lunch Home,560038,Indian Seafood Asian      ,Vegetarian Friendly   ,Crab Lobster Shrimp Curry Clams Prawns Duck Fish Fish Curry Thali Basa             ,Delivery Takeout Reservations Seating Parking Available Valet Parking Serves Alcohol Full Bar Table Service                    ,12.96575,77.641785,Lunch Dinner Late Night Drinks  ,186,5993.0,348.0,3.5,3.338294506,Indian
81,Kesariya,560078,Indian Asian       ,Vegetarian Friendly Vegan Options Gluten Free Options ,Thali Roti                      ,Takeout Reservations Seating Parking Available Validated Parking Valet Parking Table Service                      ,12.906417,77.58967,Lunch Dinner    ,95,5993.0,349.0,4.0,3.337884188,Indian
82,The Permit Room,560025,Indian Bar Pub      ,Vegetarian Friendly Vegan Options Gluten Free Options ,Chilli Chicken Salad Wings Chili Curry Beef Lamb Cakes Fish Pork              ,Takeout Reservations Outdoor Seating Seating Parking Available Highchairs Available Serves Alcohol Full Bar Table Service                    ,12.9703,77.61039,Lunch Dinner Brunch   ,222,76.0,4.0,4.5,4.10725975,Indian
83,Machan,560001,        ,Vegetarian Friendly   ,                       ,Reservations Seating Validated Parking Valet Parking Highchairs Available Serves Alcohol Table Service                      ,12.984181,77.5845,Breakfast Dinner    ,105,5993.0,12.0,5.0,4.825559616,Generic
84,Le Cirque Signature,560008,Italian French European      ,Vegetarian Friendly Vegan Options Gluten Free Options ,Pasta Lobster Salad Calamari Risotto Tiramisu Carbonara Scallops Duck Lamb Pesto Bisque            ,Reservations Private Dining Seating Parking Available Validated Parking Valet Parking Highchairs Available Wheelchair Accessible Serves Alcohol Full Bar Free Wifi Table Service                 ,12.960796,77.648476,Lunch Dinner    ,292,5993.0,32.0,5.0,4.759070396,Italian
85,Mangalore Pearl,560042,Indian Seafood Asian      ,Vegetarian Friendly   ,Juice & Smoothies Crab Chili Curry Clams Prawns Fried rice Fish Pork Fish Curry              ,Delivery Takeout Reservations Seating Street Parking Accepts Credit Cards Table Service                      ,12.993555,77.61831,Lunch Dinner    ,152,5993.0,172.0,4.0,3.671695232,Indian
86,Rajdhani Thali,560038,Indian Asian       ,Vegetarian Friendly Vegan Options Gluten Free Options ,Curry Thali Roti                     ,Takeout Reservations Seating Parking Available Wheelchair Accessible Accepts American Express Accepts Mastercard Accepts Visa Digital Payments Accepts Credit Cards Table Service Family style                 ,12.963801,77.641624,Lunch Dinner    ,164,5993.0,291.0,4.0,3.398551702,Indian
87,Ironhill Brewery,560037,Indian Bar Pub      ,Vegetarian Friendly Vegan Options  ,                       ,Reservations Seating Table Service                          ,13.041738,77.54668,Lunch Dinner    ,26,5993.0,393.0,4.0,3.299933195,Indian
88,Shri Sagar (C.T.R),560003,Indian Healthy       ,Vegetarian Friendly Vegan Options  ,                       ,Takeout Seating Table Service Playgrounds                         ,12.998065,77.56961,Breakfast Brunch    ,656,5993.0,69.0,4.5,4.366239071,Indian
89,Chianti Indiranagar,560038,Italian Pizza European Wine Bar     ,Vegetarian Friendly Vegan Options  ,Pasta Lasagne Salad Risotto Tiramisu Salmon Prawns Lamb Pesto Penne              ,Takeout Reservations Seating Parking Available Highchairs Available Serves Alcohol Full Bar Table Service                     ,12.970125,77.64032,Lunch Dinner Brunch   ,142,5993.0,175.0,4.5,3.65423584,Italian
90,The Kabab Studio,560001,Indian Barbecue Asian      ,Vegetarian Friendly Halal  ,Doner Kebab Salad Curry Prawns Fish Paneer Roti                 ,Reservations Buffet Seating Parking Available Validated Parking Valet Parking Serves Alcohol Table Service Live Music                    ,12.985362,77.57953,Lunch Dinner Late Night   ,164,5993.0,206.0,4.0,3.577332497,Indian
91,Hoot,560102,Indian Brew Pub Bar Asian Pub Fusion   ,Vegetarian Friendly   ,Salad Prawns Paneer                     ,Reservations Seating Serves Alcohol Full Bar Table Service                        ,12.914151,77.678604,Lunch Dinner    ,124,76.0,19.0,4.0,3.357571602,Indian
92,Shivaji Military Hotel,560082,Indian Asian       ,Halal   ,Chili Curry                      ,Takeout Seating Table Service                          ,12.917907,77.57396,Lunch Brunch    ,101,5993.0,402.0,4.0,3.291412592,Indian
93,The Only Place,560001,American Steakhouse European      ,Vegetarian Friendly   ,Cheesecake Filet Mignon Fish & Chips Burger Lasagne Moussaka Salad Wings Lamb chops Quiche Beef Apple pie Lamb Pesto Cakes Fish Grilled Fish       ,Takeout Reservations Outdoor Seating Seating Parking Available Highchairs Available Wheelchair Accessible Accepts American Express Accepts Mastercard Accepts Visa Accepts Credit Cards Table Service Family style                ,12.973319,77.60353,Lunch Dinner    ,490,5993.0,101.0,4.0,4.067201138,American
94,Memories Of China,560001,Chinese Asian Cantonese Szechuan Shanghai Hong Kong   ,Vegetarian Friendly Vegan Options Gluten Free Options ,Noodle Chilli Chicken Dim Sum Dumplings Mandarin Duck Peking Duck Chili Prawns Duck Lamb Fried rice Fish Pork           ,Takeout Reservations Buffet Private Dining Seating Validated Parking Valet Parking Wheelchair Accessible Serves Alcohol Full Bar Table Service                  ,12.973274,77.61973,Lunch Dinner Late Night   ,223,5993.0,48.0,4.5,4.677394867,Chinese
95,One Atria Cafe,560001,Indian International       ,Vegetarian Friendly Vegan Options Gluten Free Options ,Curry                       ,Takeout Reservations Outdoor Seating Buffet Seating Parking Available Valet Parking Wheelchair Accessible Serves Alcohol Accepts Credit Cards Table Service Family style                 ,12.979885,77.5863,Breakfast Lunch Dinner Brunch Late Night Drinks,834,5993.0,18.0,5.0,4.797416687,Indian
96,Hakuna Matata,560078,Indian Bar Asian      ,Vegetarian Friendly Vegan Options  ,Ice Cream Paneer                      ,Takeout Reservations Outdoor Seating Seating Parking Available Validated Parking Television Highchairs Available Serves Alcohol Full Bar Table Service                  ,12.894083,77.586624,Lunch Dinner Brunch   ,150,5993.0,164.0,4.0,3.690792561,Indian
97,Koshy's Bar & Restaurant,560001,Indian Bar International      ,Vegetarian Friendly   ,Juice & Smoothies Noodle Sandwiches Fish & Chips Burger Omelette Chicken Sandwich Curry Prawns French Fries Toasts Beef Duck Lamb Fish Pork Roast Turkey Chicken Livers Fish Curry Roti    ,Takeout Seating Serves Alcohol Accepts Credit Cards Table Service                        ,12.975746,77.601494,Breakfast Lunch Dinner Brunch Late Night ,572,5993.0,123.0,4.0,3.84326911,Indian
98,Ssaffron,560001,Indian        ,Vegetarian Friendly Vegan Options Halal Gluten Free Options,Curry Lamb Paneer                     ,Reservations Outdoor Seating Seating Parking Available Valet Parking Highchairs Available Wheelchair Accessible Serves Alcohol Full Bar Accepts Credit Cards Table Service                  ,12.991831,77.588005,Lunch Dinner    ,1022,5993.0,13.0,5.0,4.833468437,Indian
99,Spice Terrace,560001,Indian Asian       ,Vegetarian Friendly Vegan Options Halal Gluten Free Options,Curry Lamb Paneer Roti                    ,Reservations Outdoor Seating Seating Parking Available Validated Parking Valet Parking Wheelchair Accessible Serves Alcohol Full Bar Accepts American Express Accepts Mastercard Accepts Visa Free Wifi Accepts Credit Cards Table Service              ,12.972126,77.595024,Dinner     ,499,5993.0,42.0,5.0,4.720776558,Indian
100,High Ultra Lounge,560055,Bar Pub       ,Vegetarian Friendly Vegan Options Gluten Free Options ,Noodle Dumplings Tempura Curry Prawns Fish Pork                 ,Reservations Outdoor Seating Seating Parking Available Validated Parking Valet Parking Serves Alcohol Full Bar Accepts American Express Accepts Mastercard Accepts Visa Digital Payments Accepts Discover Accepts Credit Cards Table Service              ,13.012285,77.55617,Lunch Dinner Brunch Late Night Drinks ,396,5993.0,86.0,4.0,4.151268959,Pub
101,The Persian Terrace,560055,Lebanese Mediterranean Middle Eastern Persian     ,Vegetarian Friendly Vegan Options Halal Gluten Free Options,Falafel Salad Hummus Lamb Fish                   ,Reservations Outdoor Seating Private Dining Seating Parking Available Validated Parking Valet Parking Wheelchair Accessible Serves Alcohol Full Bar Accepts Credit Cards Table Service                 ,13.012322,77.555275,Lunch Dinner Brunch   ,241,5993.0,100.0,4.5,4.074336052,Mediterranean
102,Subz,560011,Indian Asian       ,Vegetarian Friendly Vegan Options  ,Noodle Pasta Salad Pesto Paneer Roti                  ,Reservations Seating Validated Parking Valet Parking Highchairs Available Table Service                       ,12.93274,77.58712,Lunch Dinner    ,135,5993.0,219.0,4.0,3.530185699,Indian
103,The Rogue Elephant,560004,Mediterranean        ,Vegetarian Friendly Vegan Options  ,Pasta Salad Hummus Pesto Fish                   ,Takeout Reservations Outdoor Seating Seating Table Service                        ,12.941575,77.5772,Lunch Dinner    ,42,5993.0,278.0,4.5,3.412537575,Mediterranean
104,Lotus Pavilion,560025,Bar International Healthy      ,Vegetarian Friendly Vegan Options Gluten Free Options ,Pasta Salad Pesto                     ,Reservations Seating Parking Available Valet Parking Wheelchair Accessible Serves Alcohol Full Bar Wine and Beer Accepts American Express Accepts Mastercard Accepts Visa Accepts Credit Cards Table Service Gift Cards Available               ,12.966944,77.59611,Lunch Dinner Late Night Drinks  ,620,5993.0,21.0,5.0,4.79292202,Bar
105,Truffles,560095,American Cafe Fast Food      ,Vegetarian Friendly Vegan Options Gluten Free Options ,Sandwiches Pasta Cheeseburger Cheesecake Burger Salad Nachos Lamb Pesto Cakes Fish             ,Delivery Takeout Seating Table Service                         ,12.933545,77.61432,Lunch Dinner Brunch Late Night  ,331,5993.0,93.0,4.5,4.113726616,American
106,"Barbeque Nation - Indiranagar, Bangalore",560071,Indian Barbecue Asian      ,Vegetarian Friendly Vegan Options Halal Gluten Free Options,Cheesecake Crab Doner Kebab Shrimp Tandoori Chicken Salad Curry Prawns Fish Paneer              ,Reservations Buffet Seating Parking Available Validated Parking Valet Parking Highchairs Available Serves Alcohol Accepts Credit Cards Table Service Live Music                  ,12.962763,77.64131,Lunch Dinner Brunch Late Night  ,3336,5993.0,80.0,4.5,4.209087849,Indian
107,13th Floor Lounge Bar,560001,Indian Bar Asian Thai     ,Vegetarian Friendly Vegan Options  ,Beef                       ,Reservations Outdoor Seating Buffet Seating Parking Available Validated Parking Valet Parking Television Wheelchair Accessible Serves Alcohol Full Bar Accepts American Express Accepts Mastercard Accepts Visa Accepts Credit Cards Table Service             ,12.975408,77.605125,Dinner Late Night Drinks   ,498,5993.0,103.0,4.0,4.062652588,Indian
108,Imli Cafe and restaurant,560038,Chinese Indian Asian      ,Vegetarian Friendly Vegan Options  ,Juice & Smoothies Paneer Roti                     ,Delivery Takeout Reservations Outdoor Seating Seating Parking Available Street Parking Wheelchair Accessible Accepts American Express Accepts Mastercard Accepts Visa Accepts Credit Cards Table Service                ,12.979832,77.63963,Lunch Dinner Brunch   ,197,5993.0,248.0,4.0,3.462561607,Indian
109,Communiti,560025,Bar Pub       ,Vegetarian Friendly Gluten Free Options  ,Pasta Burger Salad Nachos Beef Pesto Fish Pork                ,Reservations Outdoor Seating Seating Parking Available Valet Parking Television Wheelchair Accessible Serves Alcohol Full Bar Wine and Beer Table Service Dog Friendly                 ,12.972427,77.608246,Lunch Dinner Brunch Drinks  ,195,5993.0,121.0,4.5,3.848855734,Pub
110,Champaca Cafe,560052,African Cafe European Asian Contemporary Ethiopian   ,   ,                       ,                            ,12.98926,77.59912,     ,7,5993.0,788.0,4.5,3.145896673,Asian
111,Maiyas Restaurants Pivate Limited,560011,Indian Asian       ,Vegetarian Friendly Vegan Options Gluten Free Options ,Juice & Smoothies Curry Thali                     ,Takeout Reservations Seating Table Service                         ,12.92872,77.58136,Breakfast Lunch Dinner Brunch Late Night ,330,5993.0,192.0,4.0,3.60879159,Indian
112,Echo Lounge Bar,560103,Indian Bar Pizza International Wine Bar    ,   ,Tapas                       ,Reservations Outdoor Seating Seating Parking Available Highchairs Available Serves Alcohol Full Bar Wine and Beer Accepts American Express Accepts Mastercard Accepts Visa Digital Payments Free Wifi Accepts Credit Cards Table Service Jazz Bar             ,12.936511,77.6933,Lunch Dinner Drinks   ,90,5993.0,10.0,5.0,4.847769737,Indian
113,Gufha,560011,Indian        ,Vegetarian Friendly Vegan Options  ,Paneer Roti                      ,Takeout Reservations Seating Parking Available Validated Parking Valet Parking Highchairs Available Wheelchair Accessible Serves Alcohol Full Bar Accepts American Express Accepts Mastercard Accepts Visa Digital Payments Free Wifi Accepts Credit Cards Table Service            ,12.92742,77.58047,Lunch Dinner    ,208,5993.0,227.0,4.0,3.498026133,Indian
114,Bombay Brasserie,560008,Indian Bar Grill Pub Dining bars    ,Vegetarian Friendly Vegan Options  ,Wings Chili Curry Prawns Fish Paneer Roti                 ,Takeout Reservations Outdoor Seating Seating Serves Alcohol Full Bar Table Service                      ,12.970281,77.64583,Lunch Dinner Brunch   ,171,5993.0,148.0,4.0,3.752454281,Indian
115,Vidyarthi Bhavan,560 004,Indian Asian Healthy      ,Vegetarian Friendly Vegan Options  ,                       ,Takeout Seating Table Service                          ,12.945134,77.57142,Breakfast     ,892,5993.0,98.0,4.0,4.083124161,Indian
116,MTR - Mavalli Tiffin Rooms,560027,Indian        ,Vegetarian Friendly Vegan Options Gluten Free Options ,Juice & Smoothies Salad Curry Thali Fruit Salad                   ,Takeout Seating Accepts Credit Cards Table Service                         ,12.830622,77.513275,Breakfast Lunch Dinner Brunch  ,2713,5993.0,83.0,4.0,4.192060471,Indian
117,Cubbon Pavilion,560025,International European Healthy      ,Vegetarian Friendly Vegan Options Halal Gluten Free Options,Juice & Smoothies Omelette Salad Curry Fish                   ,Reservations Buffet Seating Parking Available Valet Parking Highchairs Available Wheelchair Accessible Serves Alcohol Wine and Beer Accepts American Express Accepts Mastercard Accepts Visa Digital Payments Accepts Credit Cards Table Service Family style Gift Cards Available            ,12.967024,77.59581,Breakfast Lunch Dinner Brunch Drinks ,1268,5993.0,23.0,5.0,4.783100605,European
118,Shang Palace,560001,Chinese Asian Cantonese Szechuan Shanghai Hong Kong   ,Vegetarian Friendly Vegan Options Halal Gluten Free Options,Noodle Chilli Chicken Dim Sum Dumplings Hot Pot Lobster Chili Prawns Duck Lamb Fried rice Fish Pork           ,Reservations Private Dining Seating Parking Available Valet Parking Highchairs Available Wheelchair Accessible Serves Alcohol Full Bar Free Wifi Accepts Credit Cards Table Service                 ,12.991676,77.588264,Lunch Dinner    ,398,5993.0,43.0,4.5,4.718305588,Chinese
119,The Raj Pavilion,560020,Indian International Asian Healthy     ,Vegetarian Friendly Vegan Options Halal Gluten Free Options,Juice & Smoothies Salad Waffles                     ,Reservations Seating Parking Available Validated Parking Valet Parking Wheelchair Accessible Serves Alcohol Full Bar Accepts Credit Cards Table Service                   ,12.994106,77.58553,Breakfast Lunch Dinner Brunch  ,1093,5993.0,31.0,5.0,4.761683941,Indian
120,Byg Brewski Brewing Company,560035,Brew Pub        ,Vegetarian Friendly Vegan Options Gluten Free Options ,Tapas Chili Nachos Prawns Fish Pork                  ,Reservations Outdoor Seating Seating Parking Available Validated Parking Valet Parking Television Highchairs Available Serves Alcohol Full Bar Wine and Beer Accepts American Express Accepts Mastercard Accepts Visa Accepts Credit Cards Table Service Live Music Waterfront           ,12.913129,77.683205,Lunch Dinner Brunch Late Night Drinks ,2689,5993.0,11.0,4.5,4.844994545,Pub
121,Long Boat Brewing Co,560037,American Indian Barbecue Asian Beer restaurants    ,   ,                       ,Reservations Outdoor Seating Buffet Private Dining Seating Parking Available Valet Parking Television Serves Alcohol Full Bar Wine and Beer Accepts American Express Accepts Mastercard Accepts Visa Digital Payments Free Wifi Accepts Credit Cards Table Service           ,12.951855,77.70041,Lunch Dinner Brunch Drinks  ,31,5993.0,184.0,4.5,3.626909971,Indian
122,The Black Pearl,560095,Indian Barbecue Asian      ,Vegetarian Friendly Vegan Options Halal Gluten Free Options,Noodle Crab Salad Curry Quail Prawns Octopus Fish Paneer Roti              ,Reservations Seating Parking Available Validated Parking Valet Parking Highchairs Available Serves Alcohol Full Bar Table Service Live Music                   ,12.93928,77.69478,Lunch Dinner Brunch Late Night  ,377,5993.0,149.0,4.0,3.735891104,Indian
123,Shiro Bengaluru,560001,Japanese Sushi Asian Shanghai     ,Vegetarian Friendly Vegan Options Gluten Free Options ,Noodle Dim Sum Dumplings Tempura Udon & Soba (Wheat & Buckwheat Noodle) Salad Curry Tiramisu Salmon Tuna Prawns Duck Udon Gyoza Fried rice Sashimi Fish Pork      ,Reservations Outdoor Seating Seating Parking Available Highchairs Available Serves Alcohol Full Bar Wine and Beer Accepts Credit Cards Table Service                   ,12.97166,77.59598,Lunch Dinner Late Night Drinks  ,868,5993.0,27.0,4.5,4.776372433,Asian
124,Cinnamon,560001,Cafe Deli       ,Vegetarian Friendly Vegan Options  ,Cakes                       ,Takeout Reservations Seating Parking Available Validated Parking Valet Parking Wheelchair Accessible Digital Payments Accepts Credit Cards Table Service                   ,12.98422,77.57657,Breakfast Lunch Dinner   ,94,6520.0,66.0,5.0,4.451313972,Cafe
125,Lush,560001,American Indian International Asian Afghan    ,Vegetarian Friendly Vegan Options Gluten Free Options ,                       ,Delivery Takeout Reservations Outdoor Seating Seating Parking Available Street Parking Validated Parking Valet Parking Highchairs Available Wheelchair Accessible Serves Alcohol Full Bar Wine and Beer Digital Payments Free Wifi Accepts Credit Cards Table Service           ,12.984373,77.57647,Breakfast Lunch Dinner Late Night  ,847,5993.0,9.0,5.0,4.852059841,Indian
126,Kebabs & Kurries,560001,Indian        ,Vegetarian Friendly Vegan Options Halal Gluten Free Options,Doner Kebab Curry Prawns Lamb Fish Paneer Roti                 ,Reservations Seating Parking Available Valet Parking Wheelchair Accessible Serves Alcohol Wine and Beer Accepts American Express Accepts Mastercard Accepts Visa Accepts Credit Cards Table Service Family style Gift Cards Available               ,12.967345,77.59569,Lunch Dinner Drinks   ,1524,5993.0,7.0,5.0,4.862158298,Indian
127,Tiamo,560008,Italian Bar Pizza Mediterranean     ,Vegetarian Friendly Vegan Options Gluten Free Options ,Pasta Falafel Salad Tiramisu Prawns Lamb Pesto                 ,Takeout Reservations Outdoor Seating Seating Parking Available Valet Parking Highchairs Available Wheelchair Accessible Serves Alcohol Full Bar Wine and Beer Digital Payments Cash Only Free Wifi Accepts Credit Cards Table Service Live Music Waterfront Family style Non-smoking restaurants Gift Cards Available        ,12.975491,77.62057,Lunch Dinner Brunch Drinks  ,726,5993.0,6.0,5.0,4.883330822,Italian
128,Byg Brewski Brewing Company,560077,Mexican American Indian Brew Pub Bar International Asian Pub ,Vegetarian Friendly Vegan Options Gluten Free Options ,Pasta Tapas Nachos Tres Leches Pesto Fish Pork                 ,Delivery Takeout Reservations Seating Validated Parking Serves Alcohol Full Bar Table Service Live Music                    ,13.07083,77.65186,Lunch Dinner Drinks   ,1607,5993.0,4.0,5.0,4.910272121,Indian
129,Loya,560001,Indian        ,Vegetarian Friendly Vegan Options Gluten Free Options ,Curry Paneer                      ,Reservations Outdoor Seating Seating Parking Available Validated Parking Valet Parking Wheelchair Accessible Serves Alcohol Full Bar Digital Payments Accepts Credit Cards Table Service                 ,12.984524,77.58458,Lunch Dinner    ,606,5993.0,2.0,5.0,4.927647114,Indian
130,Dyu Art Cafe,560077,Cafe        ,Vegetarian Friendly Vegan Options  ,Sandwiches Pasta Burger Omelette Salad Toasts Pesto                 ,Takeout Outdoor Seating Seating Table Service                         ,12.937332,77.61756,Breakfast Lunch Dinner Brunch  ,112,5993.0,220.0,4.0,3.528794765,Cafe
131,Nook,560103,Indian Asian       ,Vegetarian Friendly Vegan Options Gluten Free Options ,Tapas Salad Cakes Fish                    ,Reservations Seating Parking Available Validated Parking Valet Parking Highchairs Available Wheelchair Accessible Serves Alcohol Full Bar Free Wifi Accepts Credit Cards Table Service Live Music                ,12.937097,77.69514,Breakfast Lunch Dinner Brunch Drinks ,572,6520.0,3.0,5.0,4.926831245,Indian
132,Time Traveller,560099,Indian International Asian      ,Vegetarian Friendly Vegan Options Gluten Free Options ,Pasta Salad Pesto                     ,Delivery Takeout Reservations Seating Parking Available Validated Parking Valet Parking Highchairs Available Wine and Beer Accepts Mastercard Accepts Visa Free Wifi Accepts Credit Cards Table Service               ,12.824636,77.68114,Breakfast Lunch Dinner Brunch  ,2427,5993.0,1.0,5.0,4.947824001,Indian
133,Little Italy,560038,Italian Pizza       ,Vegetarian Friendly Vegan Options  ,Lasagne Salad Nachos Risotto Tiramisu Pesto Penne                 ,Delivery Takeout Reservations Buffet Seating Parking Available Street Parking Valet Parking Highchairs Available Wheelchair Accessible Serves Alcohol Accepts American Express Accepts Mastercard Accepts Visa Cash Only Accepts Credit Cards Table Service            ,12.966362,77.641556,Lunch Dinner Brunch   ,209,5993.0,196.0,4.0,3.603433371,Italian
134,Hotel Nalapaka,560021,Indian        ,Vegetarian Friendly Vegan Options  ,Roti                       ,Takeout Seating Table Service                          ,12.998421,77.55229,Breakfast Lunch Dinner   ,25,5993.0,852.0,4.0,3.134548187,Indian
135,Buff Buffet Buff,560034,Indian International Asian      ,Vegetarian Friendly Vegan Options  ,Salad Curry Prawns Fish                    ,Takeout Reservations Seating Parking Available Validated Parking Table Service                       ,12.933363,77.61518,Lunch Dinner Brunch   ,81,5993.0,412.0,4.0,3.285913944,Indian
136,Airlines Hotel Restaurant,560001,Indian        ,Vegetarian Friendly Vegan Options  ,                       ,Takeout Outdoor Seating Seating Parking Available Table Service                        ,12.972922,77.59982,Breakfast Lunch Dinner Brunch  ,80,5993.0,580.0,3.5,3.207799435,Indian
137,Skyye Lounge,560001,American Bar Contemporary Pub     ,Vegetarian Friendly   ,                       ,Reservations Outdoor Seating Seating Parking Available Television Serves Alcohol Full Bar Accepts American Express Accepts Mastercard Accepts Visa Table Service                  ,12.971442,77.596504,Dinner Late Night Drinks   ,235,5993.0,183.0,4.0,3.629019499,American
138,A2B - Adyar Ananda Bhavan,560027,Indian Fast Food Asian      ,Vegetarian Friendly Vegan Options  ,Paneer Thali Pav Bhaji                     ,Takeout Seating Parking Available Accepts Credit Cards Table Service                        ,12.954451,77.59311,Breakfast Lunch Dinner Brunch Late Night ,348,5993.0,306.0,3.5,3.382515907,Indian
139,Library Bar,560008,Bar Wine Bar       ,Vegetarian Friendly   ,                       ,Reservations Outdoor Seating Seating Parking Available Validated Parking Wheelchair Accessible Serves Alcohol Full Bar Table Service                    ,12.961325,77.648544,Drinks     ,135,5993.0,112.0,4.5,3.937470675,Bar
140,1947,560011,Indian Asian       ,Vegetarian Friendly   ,Pasta Salad Pesto Paneer Roti                   ,Takeout Reservations Seating Wheelchair Accessible Table Service                        ,12.927526,77.586266,Lunch Dinner    ,67,5993.0,409.0,4.0,3.288383007,Indian
141,Hae Kum Gang,560025,Korean        ,Vegetarian Friendly   ,Tuna Beef Fried rice Pork Kimchi                   ,Takeout Reservations Seating Serves Alcohol Table Service                        ,12.967877,77.607346,Lunch Dinner Brunch   ,48,5993.0,456.0,4.0,3.258705378,Korean
142,Kari Theory,560042,Indian Street Food       ,Vegetarian Friendly   ,                       ,Delivery Takeout Reservations Buffet Private Dining Seating Parking Available Free off-street parking Highchairs Available Wheelchair Accessible Serves Alcohol Full Bar Wine and Beer Accepts American Express Accepts Mastercard Accepts Visa Digital Payments Accepts Credit Cards Table Service Live Music Family style        ,12.976218,77.61949,Breakfast Lunch Dinner Drinks  ,60,5993.0,70.0,5.0,4.351613998,Indian
143,Highland Nectar,560025,Bar Pub Gastropub      ,   ,                       ,Reservations Seating Parking Available Valet Parking Television Wheelchair Accessible Serves Alcohol Full Bar Wine and Beer Accepts American Express Accepts Mastercard Accepts Visa Accepts Credit Cards Table Service Live Music Gift Cards Available             ,12.966944,77.59583,Late Night Drinks    ,57,5993.0,129.0,5.0,3.844634295,Pub
144,Village,,        ,   ,                       ,                            ,12.916479,77.59223,     ,5,5993.0,1860.0,4.0,3.052297831,Generic
145,Limelight,560008,Indian International       ,Vegetarian Friendly Vegan Options  ,                       ,Reservations Outdoor Seating Buffet Seating Parking Available Validated Parking Valet Parking Highchairs Available Wheelchair Accessible Serves Alcohol Wine and Beer Free Wifi Accepts Credit Cards Table Service               ,12.957147,77.64398,Breakfast Lunch Dinner Brunch Drinks ,108,5993.0,99.0,4.5,4.075657368,Indian
146,The Fat Chef,560066,European        ,Vegetarian Friendly Vegan Options  ,Pasta Cheesecake Burger Lasagne Salad Wings Curry Hummus Prawns Beef Lamb Pesto Fish Grilled Fish          ,Takeout Reservations Outdoor Seating Seating Parking Available Validated Parking Serves Alcohol Wine and Beer Accepts American Express Accepts Mastercard Accepts Visa Accepts Credit Cards Table Service                ,12.957647,77.74087,Breakfast Lunch Dinner Brunch Late Night ,164,5993.0,312.0,4.0,3.373452425,European
147,Green Theory,560001,Italian International       ,Vegetarian Friendly Vegan Options Gluten Free Options ,Pasta Cheesecake Burger Lasagne Salad Cupcakes Nachos Curry Hummus Pesto Cakes Paneer Boxty           ,Delivery Takeout Reservations Outdoor Seating Seating Highchairs Available Wheelchair Accessible Accepts American Express Accepts Mastercard Accepts Visa Digital Payments Cash Only Free Wifi Accepts Credit Cards Table Service              ,12.968166,77.60272,Lunch Dinner Brunch   ,144,5993.0,207.0,4.0,3.575122118,Italian
148,Soi & Sake,560300,Chinese Japanese Sushi Asian     ,Vegetarian Friendly Vegan Options Gluten Free Options ,                       ,Reservations Seating Validated Parking Valet Parking Wheelchair Accessible Serves Alcohol Full Bar Wine and Beer Table Service                    ,13.197151,77.71078,Lunch Dinner    ,66,5993.0,157.0,4.5,3.711028576,Chinese
149,Sanman,560020,Indian        ,Vegetarian Friendly Vegan Options  ,                       ,Takeout Seating Table Service                          ,12.98918,77.57383,Breakfast Lunch Dinner Brunch  ,26,5993.0,569.0,4.5,3.213935375,Indian
150,Dice N Dine,560095,Pizza Cafe       ,Vegetarian Friendly   ,                       ,Delivery Takeout Reservations Seating Table Service                        ,12.9326,77.6142,Lunch Dinner    ,42,5993.0,536.0,4.0,3.225931644,Pizza
151,Inchara Multi Cuisine Family Garden Bar and Restaurant,560078,Chinese Indian International Asian     ,Vegetarian Friendly   ,                       ,Delivery Takeout Reservations Seating Parking Available Validated Parking Serves Alcohol Table Service                     ,12.902308,77.583916,Lunch Dinner Late Night   ,71,5993.0,612.0,3.5,3.196622372,Indian
152,MoMo Cafe,560103,Indian Asian       ,Vegetarian Friendly Vegan Options Gluten Free Options ,Pasta Pesto Fish                     ,Reservations Buffet Seating Parking Available Validated Parking Valet Parking Highchairs Available Wheelchair Accessible Serves Alcohol Full Bar Accepts American Express Accepts Mastercard Accepts Visa Free Wifi Accepts Credit Cards Table Service             ,12.92798,77.68245,Breakfast Lunch Dinner Late Night  ,171,5993.0,117.0,4.5,3.884187698,Indian
153,Murphy's Brewhouse,560071,Irish Brew Pub Bar International Pub    ,Vegetarian Friendly   ,Wings Fish                      ,Reservations Seating Parking Available Television Serves Alcohol Full Bar Table Service                      ,12.95361,77.63942,Lunch Dinner Late Night Drinks  ,139,5993.0,177.0,4.0,3.648173332,Pub
154,Shebestan,560017,Lebanese Middle Eastern       ,Vegetarian Friendly Vegan Options Halal Gluten Free Options,Falafel Salad Hummus Lamb                    ,Reservations Seating Parking Available Validated Parking Serves Alcohol Full Bar Table Service                      ,12.959572,77.64877,Lunch Dinner Brunch   ,77,5993.0,269.0,4.5,3.437119484,Generic
155,NH7Refuel,562110,Indian Asian       ,Vegetarian Friendly Vegan Options  ,Roti                       ,Takeout Reservations Outdoor Seating Seating Parking Available Street Parking Digital Payments Cash Only Table Service                    ,13.261157,77.71563,Breakfast Lunch Dinner Brunch  ,23,5993.0,492.0,4.5,3.242255449,Indian
156,Rasta Cafe,560001,Italian International European      ,   ,                       ,Takeout Reservations Outdoor Seating Private Dining Seating Parking Available Valet Parking Free off-street parking Highchairs Available Serves Alcohol Full Bar Wine and Beer Digital Payments Free Wifi Accepts Credit Cards              ,12.974352,77.60679,Breakfast Lunch Dinner Drinks  ,7,5993.0,1047.0,4.5,3.106870651,Italian
157,La Utsav,560070,Italian Chinese Indian Cafe Mediterranean Asian   ,Vegetarian Friendly   ,                       ,Reservations Seating Validated Parking Table Service                         ,12.9928,77.66104,Breakfast Lunch Dinner   ,65,5993.0,77.0,5.0,4.264987469,Indian
158,Central Jail Resturent,560102,Indian        ,   ,                       ,Takeout Reservations Table Service Family style Non-smoking restaurants                        ,12.929983,77.58503,Lunch Dinner    ,14,5993.0,1141.0,4.0,3.095715523,Indian
159,Asia Alive,560102,Indian Asian       ,Vegetarian Friendly Vegan Options  ,Pasta Pesto Fish                     ,Reservations Seating Parking Available Wheelchair Accessible Serves Alcohol Table Service                       ,12.919354,77.665276,Breakfast Lunch Dinner   ,66,5993.0,240.0,4.0,3.472422838,Indian
160,Aqua,560042,Bar Seafood Mediterranean European Pub    ,   ,                       ,Reservations Seating Wheelchair Accessible Serves Alcohol Table Service                        ,12.97449,77.61102,Dinner Drinks    ,54,5993.0,417.0,4.5,3.282592297,Mediterranean
161,Rashtrakutas,560102,Indian Asian       ,Vegetarian Friendly Vegan Options  ,Thali                       ,Delivery Takeout Reservations Seating Table Service                        ,12.91257,77.6446,Breakfast Lunch Dinner Brunch  ,24,5993.0,470.0,4.5,3.253016949,Indian
162,Shiv Sagar,560003,Indian Asian       ,Vegetarian Friendly Vegan Options  ,                       ,Takeout Seating Wheelchair Accessible Table Service                         ,13.00412,77.57126,Breakfast Lunch Dinner Brunch  ,49,5993.0,324.0,4.5,3.363032818,Indian
163,Connie's Steakhouse & Wine Bar,560084,American Steakhouse European Grill Wine Bar    ,Vegetarian Friendly   ,Pasta Burger Wings Beef Pesto Fish Pork                 ,Delivery Takeout Reservations Seating Table Service                        ,13.015,77.63306,Breakfast Lunch Dinner Brunch Late Night Drinks,66,5993.0,518.0,4.0,3.231271505,American
164,Copper Chimney - Indiranagar,560038,Indian        ,Vegetarian Friendly Vegan Options Halal ,Paneer Roti                      ,Takeout Reservations Seating Parking Available Serves Alcohol Table Service                       ,12.997246,77.696266,Lunch Dinner Drinks   ,124,5993.0,585.0,3.5,3.206490278,Indian
165,Arirang Korean,560084,Asian Korean       ,   ,                       ,Reservations Seating Table Service                          ,13.01546,77.63596,Lunch Dinner    ,13,5993.0,1086.0,4.5,3.102381468,Asian
166,Truffles,560094,        ,Vegetarian Friendly Vegan Options  ,Pasta Burger Lamb Pesto                    ,Delivery Takeout Seating Table Service                         ,13.02809,77.57309,Lunch Dinner    ,80,6520.0,529.0,4.0,3.243422508,Generic
167,Zaitoon Multi Cuisine Restaurant,560078,Chinese Indian Mediterranean Asian Middle Eastern    ,Vegetarian Friendly Vegan Options Halal ,Shawarma Fish                      ,Delivery Takeout Reservations Seating Table Service                        ,12.902878,77.58583,Lunch Dinner    ,72,5993.0,432.0,4.0,3.272799969,Indian
168,Chavadi,560076,Indian Bar International      ,Vegetarian Friendly Vegan Options  ,Pasta Pesto Fish                     ,Reservations Outdoor Seating Seating Parking Available Serves Alcohol Full Bar Table Service                      ,12.892224,77.60253,Lunch Dinner    ,83,5993.0,264.0,4.0,3.442785501,Indian
169,Olive Garden,560043,Italian Chinese Greek      ,   ,                       ,Reservations                            ,13.02584,77.63819,     ,7,5993.0,1942.0,4.0,3.049096584,Chinese
170,The Yogisthaan Cafe,560038,Italian Mediterranean       ,Vegetarian Friendly Vegan Options Gluten Free Options ,Juice & Smoothies Pasta Burger Salad Pesto                   ,Outdoor Seating Seating Wheelchair Accessible Table Service                         ,12.925285,77.626076,Breakfast Lunch Dinner Brunch  ,81,5993.0,384.0,4.0,3.306931257,Italian
171,Street Storyss,560038,Indian Pizza Cafe Asian Thai Street Food   ,Vegetarian Friendly Vegan Options  ,Salad Chili Cakes Paneer                    ,Delivery Reservations Seating Table Service                         ,12.970239,77.63594,Lunch Dinner    ,26,5993.0,406.0,4.5,3.290722847,Indian
172,Brahma Brews,560078,American Indian Brew Pub Bar Asian    ,Vegetarian Friendly Vegan Options  ,                       ,Reservations Seating Serves Alcohol Table Service                         ,12.893372,77.58668,Lunch Dinner    ,40,5993.0,262.0,4.5,3.44486475,Indian
173,The Eatery,560066,Indian International Asian      ,Vegetarian Friendly Vegan Options Halal Gluten Free Options,Curry Fish                      ,Takeout Reservations Seating Parking Available Validated Parking Highchairs Available Wheelchair Accessible Serves Alcohol Table Service                    ,12.979388,77.75164,Breakfast Lunch Dinner Brunch  ,88,6520.0,142.0,4.5,3.796314478,Indian
174,Ji Hazoor Restaurant,560066,Indian Asian       ,Vegetarian Friendly Halal  ,Salad Curry Fish Paneer                    ,Delivery Takeout Reservations Buffet Seating Parking Available Validated Parking Serves Alcohol Wine and Beer Table Service                   ,12.97608,77.726776,Lunch Dinner Late Night Drinks  ,165,5993.0,304.0,3.5,3.383482218,Indian
175,Tipsy Bull - The Bar Exchange,560078,Bar Pub       ,Vegetarian Friendly   ,Wings Chili Nachos Paneer                    ,Reservations Seating Television Serves Alcohol Table Service                        ,12.92091,77.66485,Dinner     ,75,5993.0,322.0,4.0,3.367387056,Pub
176,Toast and Tonic,560025,Bar European Fusion      ,Vegetarian Friendly Vegan Options Gluten Free Options ,Pasta Cheesecake Burger Shrimp Tempura Salad Chili Risotto Toasts Pesto Pork Flatbread            ,Reservations Seating Serves Alcohol Full Bar Table Service                        ,12.96668,77.608734,Lunch Dinner Brunch   ,145,5993.0,118.0,4.5,3.88355875,European
177,Woodlands,560025,Indian        ,   ,Thali                       ,Takeout Reservations Seating Wheelchair Accessible Table Service                        ,12.965438,77.59499,Breakfast Lunch Dinner   ,53,5993.0,883.0,3.5,3.129514933,Indian
178,Pecos Pub,560001,Pub Gastropub       ,   ,Beef Pork                      ,Outdoor Seating Seating Parking Available Street Parking Free off-street parking Television Highchairs Available Serves Alcohol Wine and Beer Accepts American Express Accepts Mastercard Accepts Visa Digital Payments Cash Only Free Wifi Table Service             ,12.973733,77.60725,Lunch Dinner Drinks   ,79,5993.0,473.0,4.0,3.251310587,Pub
179,The Biere Club,560001,Brew Pub International European Pub     ,Vegetarian Friendly Vegan Options  ,Pasta Burger Wings Nachos Hummus Beef Pesto Fish Pork               ,Reservations Seating Parking Available Television Serves Alcohol Full Bar Wine and Beer Table Service                     ,12.971064,77.597595,Lunch Dinner Brunch Late Night Drinks ,556,5993.0,109.0,4.0,4.023554325,European
180,"Republic of Noodles, Lemon Tree, Electronic City",560100,Chinese Asian Thai Vietnamese Singaporean Shanghai   ,Vegetarian Friendly Vegan Options Gluten Free Options ,Noodle Pad Thai Curry Prawns Lamb Fish                  ,Reservations Seating Parking Available Validated Parking Wheelchair Accessible Serves Alcohol Full Bar Table Service                     ,12.840694,77.65967,Lunch Dinner Drinks   ,196,5993.0,85.0,4.5,4.178882122,Chinese
181,The Hole In The Wall Cafe,560047,American Cafe       ,Vegetarian Friendly Vegan Options Gluten Free Options ,Waffles & Crepes Sandwiches Burger Omelette Pancakes Waffles                  ,Takeout Outdoor Seating Seating Table Service                         ,12.934545,77.62555,Breakfast Lunch Brunch   ,60,5993.0,279.0,4.5,3.412240505,American
182,SOKA Cocktail Bar,,Fusion        ,   ,                       ,Reservations Seating Street Parking Highchairs Available Serves Alcohol Accepts Mastercard Accepts Visa Digital Payments Accepts Credit Cards Table Service                   ,12.988316,77.53252,Drinks     ,4,76.0,33.0,5.0,3.140799999,Fusion
183,Misu,560001,Chinese Japanese Sushi Thai Shanghai    ,Vegetarian Friendly Vegan Options  ,Ice Cream Noodle Dumplings Salad Chili Prawns                  ,Delivery Takeout Reservations Seating Parking Available Valet Parking Highchairs Available Wheelchair Accessible Serves Alcohol Full Bar Accepts Mastercard Accepts Visa Accepts Credit Cards Table Service               ,12.970628,77.60064,Lunch Dinner Drinks   ,59,5993.0,391.0,4.0,3.302221537,Chinese
184,WelcomCafe Jacaranda,560025,Indian International       ,Vegetarian Friendly Vegan Options Gluten Free Options ,                       ,Takeout Reservations Seating Wheelchair Accessible Table Service                        ,12.968701,77.61444,Breakfast Lunch Dinner Brunch Late Night Drinks,54,5993.0,141.0,5.0,3.780324697,Indian
185,Dhaba Estd 1986,560038,Indian        ,Vegetarian Friendly Vegan Options  ,Paneer                       ,Delivery Reservations Seating Table Service                         ,12.9706,77.64637,Lunch Dinner    ,24,5993.0,832.0,4.0,3.13732338,Indian
186,Hotel Navayuga,560009,Indian Asian       ,Vegetarian Friendly Halal  ,                       ,Delivery Takeout Seating Table Service                         ,12.97738,77.57556,Lunch Dinner    ,24,5993.0,581.0,4.5,3.207719326,Indian
187,Kamat Bugle Rock,560004,Indian        ,Vegetarian Friendly Vegan Options Gluten Free Options ,Salad Curry Roti                     ,Takeout Seating Table Service Live Music                         ,12.940037,77.56685,Breakfast Lunch Dinner Brunch  ,58,5993.0,601.0,4.0,3.201413393,Indian
188,Sante Spa Cuisine,560071,Asian Healthy       ,Vegetarian Friendly Vegan Options  ,Ice Cream Salad Curry Red Curry Hummus                   ,Delivery Takeout Reservations Seating Accepts Credit Cards Table Service                       ,12.964058,77.63864,Breakfast Lunch Dinner   ,34,5993.0,247.0,4.5,3.462800741,Asian
189,Delhi Highway,560008,Indian Asian       ,Vegetarian Friendly Vegan Options  ,Pasta Pesto Paneer Thali Roti                   ,Delivery Takeout Reservations Seating Parking Available Table Service                       ,12.970158,77.639565,Lunch Dinner Brunch   ,82,5993.0,446.0,4.0,3.267192364,Indian
190,Harima,560025,Japanese Sushi Asian      ,Vegetarian Friendly Vegan Options Gluten Free Options ,Noodle California Roll Tempura Ramen Okonomiyaki & Takoyaki (Flour Dish) Donburi (Rice Bowl) Salmon Tuna Prawns Fish Soup Okonomiyaki Sashimi Fish Pork          ,Takeout Reservations Seating Serves Alcohol Full Bar Table Service                       ,12.967781,77.60012,Lunch Dinner    ,144,5993.0,276.0,4.0,3.41490984,Asian
191,The Square - Food Outside the Box,560103,Indian International       ,Vegetarian Friendly Vegan Options Gluten Free Options ,Pasta Curry Pesto Fish                    ,Takeout Reservations Seating Parking Available Validated Parking Valet Parking Highchairs Available Wheelchair Accessible Serves Alcohol Full Bar Table Service                  ,12.929796,77.68323,Breakfast Lunch Dinner Brunch  ,170,5993.0,91.0,4.5,4.121987343,Indian
192,Rasovara - The Royal Kitchen,,Indian Asian       ,Vegetarian Friendly Vegan Options Gluten Free Options ,Salad Curry Paneer Thali Roti                   ,Reservations Outdoor Seating Seating Highchairs Available Wheelchair Accessible Table Service                       ,12.972,77.59621,Lunch Dinner    ,162,5993.0,223.0,4.0,3.510791779,Indian
193,LONO - The Tropical Lounge,560038,Indian Bar Pub Fusion Gastropub    ,   ,                       ,Reservations Seating Accepts Credit Cards Table Service                         ,12.97102,77.64733,Lunch Dinner    ,17,5993.0,608.0,4.0,3.198433876,Indian
194,Little Italy,560029,Italian Pizza European      ,Vegetarian Friendly Vegan Options Gluten Free Options ,Pasta Lasagne Salad Nachos Risotto Tiramisu Pesto Cakes Penne               ,Delivery Takeout Reservations Outdoor Seating Buffet Seating Parking Available Validated Parking Valet Parking Serves Alcohol Accepts American Express Accepts Mastercard Accepts Visa Digital Payments Table Service              ,12.93426,77.60942,Lunch Dinner Brunch Late Night  ,348,5993.0,135.0,4.0,3.80034399,Italian
195,Cur8,560032,Indian Mediterranean Grill      ,Vegetarian Friendly Vegan Options  ,                       ,Reservations Outdoor Seating Buffet Private Dining Seating Valet Parking Wheelchair Accessible Full Bar Wine and Beer Accepts American Express Accepts Mastercard Accepts Visa Digital Payments Free Wifi Accepts Discover Accepts Credit Cards Table Service Dog Friendly Family style          ,13.019406,77.58529,Breakfast Lunch Dinner Brunch Drinks ,32,5993.0,244.0,4.5,3.467013359,Indian
196,Hotel Dwaraka,560004,Indian Asian       ,Vegetarian Friendly   ,                       ,Takeout                            ,12.93941,77.57926,Breakfast     ,18,5993.0,1055.0,4.0,3.10565424,Indian
197,Kaze,,Japanese Asian Thai      ,Vegetarian Friendly Vegan Options  ,Dumplings                       ,Reservations Seating Serves Alcohol Table Service                         ,12.965546,77.596504,Lunch Dinner    ,49,76.0,24.0,4.0,3.228434086,Asian
198,Bengaluru Cafe,560011,Cafe Fast Food       ,   ,                       ,                            ,12.9395,77.58404,Breakfast Dinner    ,12,5993.0,624.0,4.5,3.192163229,Fast Food
199,Uno Izakaya,560001,Japanese Bar Seafood Wine Bar     ,Vegetarian Friendly   ,Tapas                       ,Reservations Seating Parking Available Validated Parking Television Wheelchair Accessible Serves Alcohol Full Bar Accepts American Express Accepts Mastercard Accepts Visa Free Wifi Accepts Credit Cards Table Service Gift Cards Available              ,12.971746,77.59507,Dinner Late Night Drinks   ,83,5993.0,139.0,5.0,3.784245014,Japanese
200,1Q1,560052,Chinese Japanese Asian Thai Vietnamese Malaysian   ,Vegetarian Friendly Vegan Options  ,Noodle Dumplings                      ,Reservations Seating Table Service                          ,12.983717,77.596985,Lunch Dinner    ,33,5993.0,474.0,4.0,3.250613451,Chinese
201,ALBA,560001,Mediterranean European Soups      ,Vegetarian Friendly Vegan Options Gluten Free Options ,Pasta Lasagne Salad Risotto Tiramisu Minestrone Salmon Prawns Beef Lamb Pesto             ,Reservations Seating Parking Available Validated Parking Valet Parking Serves Alcohol Full Bar Accepts American Express Accepts Mastercard Accepts Visa Free Wifi Accepts Credit Cards Table Service Gift Cards Available               ,12.971713,77.5951,Dinner Drinks    ,258,5993.0,79.0,4.5,4.2156744,Mediterranean
202,Amoeba,560066,Bar Pub       ,   ,                       ,Seating Wheelchair Accessible Table Service                          ,12.98473,77.73365,Lunch Dinner    ,22,5993.0,597.0,4.0,3.203527212,Pub
203,Smoke House Deli Lavelle Road,560001,Cafe International European Deli     ,Vegetarian Friendly Vegan Options Gluten Free Options ,Juice & Smoothies Sandwiches Pasta Cheesecake Burger Omelette Salad Pancakes Risotto Salmon Beef Pesto Cakes Fish Pork         ,Takeout Reservations Outdoor Seating Seating Parking Available Validated Parking Valet Parking Highchairs Available Serves Alcohol Full Bar Table Service Drive Thru                 ,12.971637,77.59841,Breakfast Lunch Dinner Brunch  ,218,5993.0,158.0,4.0,3.707234383,European
204,Sodabottleopenerwala,560001,Indian Persian       ,Vegetarian Friendly   ,Chili Curry Prawns Fish Paneer Roti                  ,Takeout Seating Parking Available Valet Parking Wheelchair Accessible Serves Alcohol Full Bar Accepts Credit Cards Table Service                    ,12.970781,77.597626,Lunch Dinner Brunch   ,315,5993.0,110.0,4.0,4.00365591,Indian
205,Bangalore Club,560025,Indian Bar Asian Pub     ,Vegetarian Friendly   ,                       ,Seating Wheelchair Accessible                           ,12.967373,77.59763,Breakfast Lunch Dinner Brunch  ,33,5993.0,1018.0,4.0,3.110380173,Indian
206,Hotel Janatha Restaurant,560003,Indian        ,Vegetarian Friendly Vegan Options  ,                       ,Takeout Seating Table Service                          ,12.999128,77.57096,Breakfast Lunch Dinner   ,73,5993.0,358.0,4.0,3.329169273,Indian
207,Sigree Global Grill,560043,Indian Barbecue Asian Grill     ,Vegetarian Friendly Vegan Options  ,Pasta Curry Prawns Lamb Pesto Fish Paneer                 ,Reservations Seating Parking Available Valet Parking Table Service                        ,13.025401,77.6395,Lunch Dinner    ,121,5993.0,293.0,4.0,3.396154642,Indian
208,F5,560045,Indian Asian Healthy      ,Vegetarian Friendly   ,                       ,Reservations Seating Accepts Credit Cards Table Service                         ,13.027779,77.63245,Lunch Dinner    ,24,5993.0,261.0,5.0,3.446005821,Indian
209,Jalsa,560037,Indian Asian       ,Vegetarian Friendly Vegan Options Halal ,Salad Curry Fish Paneer Roti                   ,Delivery Takeout Reservations Private Dining Seating Parking Available Validated Parking Valet Parking Serves Alcohol Full Bar Table Service                  ,12.977613,77.6954,Lunch Dinner Brunch Late Night  ,308,5993.0,169.0,4.0,3.683221817,Indian
210,The Whiskey Bar,560001,Indian Bar       ,   ,                       ,Reservations Outdoor Seating Seating Parking Available Validated Parking Valet Parking Television Highchairs Available Serves Alcohol Full Bar Free Wifi Accepts Credit Cards Table Service Family style               ,12.9802,77.5861,Late Night Drinks    ,112,5993.0,20.0,5.0,4.794416904,Indian
211,Echoes,560095,Indian Pizza Cafe Fast Food Fusion    ,Vegetarian Friendly Vegan Options  ,Pasta Nachos Pesto                     ,Seating Table Service                           ,12.934103,77.61564,Lunch Dinner Brunch   ,42,5993.0,424.0,4.0,3.277239084,Indian
212,Rajathadri Palace,560098,Indian Asian       ,Vegetarian Friendly Vegan Options  ,                       ,Seating Table Service                           ,12.90368,77.49082,Breakfast Lunch Dinner Brunch  ,23,5993.0,690.0,4.0,3.171960115,Indian
213,The Market,560025,Italian Indian Asian      ,Vegetarian Friendly Vegan Options Gluten Free Options ,Pasta Salad Pesto Cakes Fish Paneer                  ,Reservations Parking Available Valet Parking Wheelchair Accessible Accepts American Express Accepts Mastercard Accepts Visa Accepts Credit Cards                     ,12.967485,77.60208,Breakfast Lunch Dinner Brunch Late Night ,162,5993.0,106.0,4.5,4.051639557,Indian
214,Mainland China,560066,Chinese Asian Cantonese Szechuan Shanghai Hong Kong   ,Vegetarian Friendly Vegan Options  ,Ice Cream Noodle Crab Dim Sum Dumplings Chili Prawns Lamb Fried rice Fish              ,Takeout Reservations Seating Parking Available Validated Parking Valet Parking Table Service                      ,12.955864,77.72519,Lunch Dinner    ,87,5993.0,250.0,4.0,3.460117817,Chinese
215,Samrat Restaurant,560001,Indian        ,Vegetarian Friendly Vegan Options  ,Thali                       ,Takeout Seating Parking Available Table Service                         ,12.984654,77.58778,Breakfast Lunch Dinner   ,60,5993.0,637.0,3.5,3.188273907,Indian
216,Muro,560001,Chinese Bar Thai Pub Wine Bar Dining bars   ,   ,                       ,Reservations Outdoor Seating Private Dining Seating Parking Available Valet Parking Highchairs Available Wheelchair Accessible Serves Alcohol Full Bar Wine and Beer Accepts American Express Accepts Mastercard Accepts Visa Digital Payments Accepts Credit Cards Table Service            ,12.974585,77.6031,Lunch Dinner Drinks   ,5,76.0,34.0,4.5,3.137350082,Chinese
217,"Salt- Indian Restaurant, Bar & Grill",560016,Indian Asian Diner      ,Vegetarian Friendly Vegan Options  ,Curry Prawns Fish Paneer Roti                   ,Takeout Reservations Buffet Seating Parking Available Wheelchair Accessible Serves Alcohol Full Bar Accepts American Express Accepts Mastercard Accepts Visa Digital Payments Table Service                ,12.996155,77.695724,Lunch Dinner Brunch   ,105,5993.0,201.0,4.0,3.590395927,Indian
218,KOKO Bengaluru,560008,Chinese Japanese Bar Sushi Asian    ,   ,                       ,Delivery Takeout Reservations Outdoor Seating Private Dining Seating Parking Available Valet Parking Highchairs Available Wheelchair Accessible Serves Alcohol Full Bar Wine and Beer Accepts American Express Accepts Mastercard Accepts Visa Digital Payments Accepts Credit Cards Table Service          ,12.960377,77.64792,Lunch Dinner Brunch Drinks  ,3,6520.0,1517.0,4.5,3.078288317,Chinese
219,The Glass House - Deli Bistro Bar,560001,International European       ,Vegetarian Friendly Gluten Free Options  ,Pasta Salad Prawns Lamb Pesto Fish                  ,Reservations Outdoor Seating Seating Valet Parking Serves Alcohol Full Bar Table Service                      ,12.970136,77.597404,Lunch Dinner Brunch Late Night Drinks ,114,5993.0,298.0,4.0,3.393420696,European
220,Tandoori Taal,560008,Indian Asian Diner      ,Vegetarian Friendly Vegan Options  ,Paneer Roti                      ,Delivery Takeout Reservations Seating Table Service                        ,12.969953,77.63812,Lunch Dinner Brunch   ,112,5993.0,218.0,4.0,3.535135984,Indian
221,Nagarjuna Indiranagar,560038,Indian        ,Vegetarian Friendly Vegan Options Halal ,Chilli Chicken Chili Curry Prawns Fish Thali                  ,Delivery Takeout Reservations Seating Parking Available Valet Parking Table Service                      ,12.977395,77.636566,Lunch Dinner    ,133,5993.0,292.0,4.0,3.397617817,Indian
222,Collage By Toscano,560066,Italian Indian Pizza European Asian    ,Vegetarian Friendly Vegan Options Gluten Free Options ,Pasta Cheesecake Lasagne Salad Lamb chops Risotto Tiramisu Salmon Beef Duck Lamb Pesto Fish Penne          ,Takeout Reservations Seating Parking Available Highchairs Available Wheelchair Accessible Serves Alcohol Full Bar Table Service Live Music                   ,12.956326,77.731766,Lunch Dinner Brunch Late Night  ,433,5993.0,105.0,4.0,4.059625149,Indian
223,By The Blue,560034,Indian        ,Vegetarian Friendly Vegan Options  ,Pasta Pesto Fish                     ,Reservations Outdoor Seating Seating Parking Available Validated Parking Valet Parking Television Wheelchair Accessible Serves Alcohol Full Bar Wine and Beer Accepts American Express Accepts Mastercard Accepts Visa Accepts Credit Cards Table Service             ,12.929167,77.62816,Breakfast Lunch Dinner Brunch  ,108,5993.0,150.0,4.5,3.732266426,Indian
224,Gold Rush Brews,560049,American Brew Pub Bar Cafe Pub Beer restaurants   ,Vegetarian Friendly Vegan Options  ,                       ,Reservations Outdoor Seating Seating Parking Available Valet Parking Television Wheelchair Accessible Wine and Beer Free Wifi Accepts Credit Cards Table Service Live Music Dog Friendly                ,13.021325,77.711,Breakfast Lunch Dinner Drinks  ,32,76.0,6.0,5.0,3.711625576,American
225,Sly Granny,560038,Bar Pub       ,Vegetarian Friendly   ,Salad                       ,Reservations Seating Parking Available Serves Alcohol Full Bar Table Service                       ,12.970569,77.64641,Lunch Dinner    ,86,5993.0,282.0,4.0,3.410726786,Pub
226,Sri Guru Kottureshwara Davangere Benne Dosa,560004,Indian        ,   ,                       ,Takeout                            ,12.97735,77.62651,Breakfast Lunch Dinner   ,20,5993.0,717.0,4.0,3.163540125,Indian
227,La Casa,560035,Italian Indian Bar International Spanish Asian Pub  ,Vegetarian Friendly Vegan Options  ,Pasta Beef Pesto Fish Pork                   ,Takeout Reservations Outdoor Seating Seating Parking Available Validated Parking Serves Alcohol Full Bar Table Service Live Music                   ,12.904213,77.67579,Lunch Dinner Brunch   ,82,5993.0,350.0,4.0,3.337612629,Indian
228,Hotel Fanoos Restaurant,560025,Indian Fast Food Asian      ,Halal   ,Shawarma Beef Roti                     ,Takeout Table Service                           ,12.9644,77.60665,Lunch Dinner Late Night   ,71,5993.0,436.0,4.0,3.27224803,Indian
229,Stone Street by BHIVE,560068,Bar Cafe International Asian Pub Eastern European   ,   ,                       ,Delivery Takeout Reservations Outdoor Seating Private Dining Seating Parking Available Validated Parking Valet Parking Television Highchairs Available Wheelchair Accessible Serves Alcohol Full Bar Wine and Beer Accepts American Express Accepts Mastercard Accepts Visa Digital Payments Cash Only Free Wifi Accepts Credit Cards Table Service Drive Thru Sports bars    ,12.916019,77.61591,Breakfast Lunch Dinner Brunch Late Night Drinks,14,5993.0,319.0,5.0,3.368947983,Asian
230,Hi Seoul,560043,Asian Korean       ,Vegetarian Friendly   ,                       ,Takeout Reservations Seating Table Service                         ,13.02384,77.65248,Lunch Dinner    ,17,5993.0,673.0,4.5,3.177521229,Asian
231,Baluchi,560001,Indian Asian       ,Vegetarian Friendly Vegan Options Halal Gluten Free Options,Curry Lamb Fish Paneer Thali Roti                  ,Reservations Seating Parking Available Validated Parking Valet Parking Wheelchair Accessible Serves Alcohol Table Service Live Music                    ,13.00457,77.58664,Lunch Dinner    ,213,5993.0,95.0,4.5,4.105287552,Indian
232,Ente Keralam,560042,Indian Asian       ,Vegetarian Friendly Vegan Options  ,Curry Prawns Beef Fish Fish Curry Thali Payasam                 ,Delivery Takeout Reservations Seating Parking Available Valet Parking Highchairs Available Serves Alcohol Table Service                    ,12.975565,77.61694,Lunch Dinner    ,229,5993.0,233.0,4.0,3.49026823,Indian
233,Mango Trees,560078,Indian Asian       ,Vegetarian Friendly Vegan Options  ,Paneer Roti                      ,Delivery Takeout Reservations Outdoor Seating Seating Parking Available Validated Parking Wheelchair Accessible Table Service                    ,12.97415,77.62963,Lunch Dinner    ,172,5993.0,187.0,4.0,3.620010138,Indian
234,Konark Vegetarian Restaurant,,Indian Asian       ,Vegetarian Friendly Vegan Options  ,Paneer Roti                      ,Takeout Reservations Seating Table Service                         ,12.98247,77.60751,Breakfast Lunch Dinner Brunch  ,73,5993.0,266.0,4.0,3.441368341,Indian
235,The Pizza Bakery,560008,Italian Pizza European Neapolitan Beer restaurants    ,Vegetarian Friendly Vegan Options  ,Tiramisu                       ,Delivery Takeout Reservations Outdoor Seating Seating Valet Parking Highchairs Available Serves Alcohol Wine and Beer Free Wifi Accepts Credit Cards Table Service Family style                ,12.970265,77.64469,Lunch Dinner Brunch Drinks  ,51,5993.0,337.0,4.5,3.349596024,Italian
236,InAzia,560048,Thai        ,Vegetarian Friendly Vegan Options Gluten Free Options ,Noodle Pad Thai Curry Prawns Fish                   ,Takeout Validated Parking Digital Payments Drive Thru                         ,12.989223,77.729996,Lunch Dinner    ,169,5993.0,58.0,5.0,4.515916824,Thai
237,The Trinity Square,560001,Italian Indian Cafe Barbecue Asian    ,Vegetarian Friendly   ,                       ,Reservations Seating Parking Available Validated Parking Highchairs Available Accepts Credit Cards Table Service                      ,12.973308,77.61967,Breakfast Lunch Dinner   ,71,5993.0,53.0,5.0,4.582834721,Indian
238,Ministry of Food,560071,Indian Asian       ,Vegetarian Friendly Vegan Options Gluten Free Options ,Waffles & Crepes Juice & Smoothies Pasta Salad Pancakes Waffles Curry Pesto Cakes Fish Paneer             ,Reservations Seating Parking Available Validated Parking Valet Parking Highchairs Available Wheelchair Accessible Serves Alcohol Full Bar Free Wifi Table Service                  ,12.94847,77.64555,Breakfast Lunch Dinner Brunch  ,255,5993.0,52.0,4.5,4.606043339,Indian
239,24x7 in Lalit Ashok,560001,Indian International European Asian     ,Vegetarian Friendly Vegan Options Halal Gluten Free Options,Pasta Salad Pesto Fish                    ,Takeout Reservations Outdoor Seating Buffet Seating Parking Available Validated Parking Valet Parking Highchairs Available Wheelchair Accessible Serves Alcohol Full Bar Free Wifi Table Service Live Music              ,12.991908,77.58191,Breakfast Lunch Dinner Brunch Late Night ,300,5993.0,76.0,4.5,4.295558453,Indian
240,Coconut Grove,560001,Brew Pub Contemporary Pub      ,Vegetarian Friendly Vegan Options  ,Curry Prawns Fish Pork Thali Payasam                  ,Takeout Reservations Outdoor Seating Seating Parking Available Street Parking Free off-street parking Full Bar Wine and Beer Accepts American Express Accepts Mastercard Accepts Visa Accepts Discover Table Service               ,12.975219,77.604416,Lunch Dinner Drinks   ,211,5993.0,215.0,4.0,3.551085711,Pub
241,"Barbeque Nation - Jp Nagar, Bangalore",560078,Indian Barbecue       ,Vegetarian Friendly Vegan Options  ,Salad Prawns Cakes Fish                    ,Reservations Seating Parking Available Validated Parking Valet Parking Highchairs Available Serves Alcohol Table Service                     ,12.906417,77.5968,Lunch Dinner Brunch   ,143,5993.0,198.0,4.5,3.599076986,Indian
242,Village - The Soul Of India,560069,Indian Asian       ,Vegetarian Friendly Vegan Options  ,Salad Curry Paneer Roti Pav Bhaji                   ,Reservations Seating Parking Available                          ,12.98745,77.60284,Lunch Dinner    ,102,5993.0,546.0,3.5,3.223116159,Indian
243,Hyderabadi Biryani,560025,Indian Asian       ,Halal   ,                       ,Delivery Takeout Seating Table Service                         ,12.966143,77.614365,Lunch Dinner    ,154,5993.0,188.0,4.0,3.617781878,Indian
244,Portland Grill & Cafe,560025,Steakhouse International European      ,Vegetarian Friendly   ,Pasta Cheesecake Filet Mignon Burger Salad Chili Lamb chops Prawns Beef Lamb Pesto Fish            ,Reservations Seating Street Parking Highchairs Available Wheelchair Accessible Serves Alcohol Full Bar Accepts Credit Cards Table Service                    ,12.970278,77.6148,Lunch Dinner    ,243,5993.0,176.0,4.0,3.651751757,European
245,Feast,560048,Indian European Asian      ,Vegetarian Friendly Vegan Options Gluten Free Options ,                       ,Reservations Seating Parking Available Validated Parking Highchairs Available Serves Alcohol Table Service                      ,12.9891,77.7298,Breakfast Lunch Dinner   ,108,5993.0,67.0,5.0,4.394635677,Indian
246,Meghana Foods,560003,Indian Asian       ,Vegetarian Friendly Halal  ,Chili Curry                      ,Delivery Takeout Seating Table Service                         ,12.973072,77.60913,Lunch Dinner Brunch   ,112,5993.0,285.0,4.0,3.405497789,Indian
247,Monkey Bar,560038,Bar Pub       ,Vegetarian Friendly   ,Burger                       ,Reservations Seating Serves Alcohol Table Service                         ,12.97037,77.64531,Dinner     ,52,6520.0,463.0,4.0,3.273230076,Pub
248,District 6,560055,Brew Pub        ,Vegetarian Friendly Vegan Options Gluten Free Options ,Pasta Burger Chili Nachos Curry Prawns Beef Lamb Pesto Fish Pork Paneer            ,Reservations Outdoor Seating Private Dining Seating Parking Available Validated Parking Valet Parking Television Highchairs Available Wheelchair Accessible Serves Alcohol Full Bar Accepts American Express Accepts Mastercard Accepts Visa Accepts Credit Cards Table Service Live Music           ,13.01227,77.55459,Lunch Dinner Late Night Drinks  ,274,5993.0,147.0,4.0,3.764957905,Pub
249,Blue Ginger,560001,Asian Vietnamese       ,Vegetarian Friendly Vegan Options Gluten Free Options ,Noodle Baguette Crab Lobster Salad Pho Chili Curry Red Curry Prawns Duck Lamb Fried rice Fish Soft Shell Crab Grilled Fish        ,Reservations Outdoor Seating Seating Parking Available Validated Parking Valet Parking Highchairs Available Wheelchair Accessible Serves Alcohol Full Bar Accepts Credit Cards Table Service                 ,12.984807,77.58398,Lunch Dinner    ,300,5993.0,90.0,4.5,4.123853207,Asian
250,Iyer Mess,560003,Indian Asian       ,Vegetarian Friendly Vegan Options  ,                       ,Takeout Seating                           ,12.99923,77.57287,Lunch Dinner    ,24,5993.0,1015.0,4.0,3.110880852,Indian
251,Sanadige Bengaluru,560001,Indian Seafood       ,Vegetarian Friendly Vegan Options  ,Crab Lobster Curry Prawns Fish                   ,Takeout Reservations Outdoor Seating Private Dining Seating Parking Available Street Parking Valet Parking Television Wheelchair Accessible Serves Alcohol Full Bar Wine and Beer Accepts Credit Cards Table Service              ,12.97452,77.60409,Breakfast Lunch Dinner Late Night Drinks ,60,5993.0,378.0,4.5,3.312460661,Indian
252,BLR Brewing Co. - Whitefield,560048,Italian Japanese Indian Sushi Asian    ,   ,                       ,Delivery Reservations Outdoor Seating Buffet Private Dining Seating Valet Parking Highchairs Available Serves Alcohol Full Bar Wine and Beer Accepts American Express Accepts Mastercard Digital Payments Cash Only Accepts Discover Accepts Credit Cards Table Service Non-smoking restaurants          ,12.969214,77.700386,Lunch Dinner Brunch Drinks  ,11,76.0,21.0,5.0,3.30435729,Indian
253,Hotel Kadamba Veg,560026,Indian Asian       ,Vegetarian Friendly Vegan Options  ,                       ,Takeout Seating Table Service                          ,12.96109,77.55797,Breakfast Lunch Dinner Brunch  ,27,5993.0,1087.0,4.0,3.102255583,Indian
254,Brewsky,560078,Indian Bar International Pub     ,Vegetarian Friendly   ,Pasta Burger Chili Nachos Pesto Fish Pork                 ,Reservations Outdoor Seating Seating Parking Available Valet Parking Television Serves Alcohol Full Bar Accepts American Express Accepts Mastercard Accepts Visa Accepts Credit Cards Table Service                ,12.906599,77.58961,Lunch Dinner Late Night Drinks  ,195,5993.0,239.0,4.0,3.47506547,Indian
255,Pasta Street,560038,Italian Pizza European Wine Bar     ,Vegetarian Friendly Vegan Options  ,Pasta Lasagne Pesto                     ,Delivery Takeout Reservations Outdoor Seating Buffet Seating Parking Available Valet Parking Television Highchairs Available Wheelchair Accessible Serves Alcohol Accepts American Express Accepts Mastercard Accepts Visa Digital Payments Free Wifi Table Service           ,12.967121,77.641624,Lunch Dinner Brunch   ,57,5993.0,271.0,4.5,3.434235573,Italian
256,The Krishna Grand,560070,Indian Asian       ,Vegetarian Friendly Vegan Options  ,Thali                       ,Delivery Takeout Reservations Seating Table Service                        ,12.921422,77.57117,Breakfast Lunch Dinner Brunch  ,66,5993.0,401.0,4.0,3.291497231,Indian
257,Karama,560005,Indian Middle Eastern       ,Vegetarian Friendly Vegan Options Halal ,Juice & Smoothies Lamb Roti                     ,Delivery Takeout Reservations Seating Parking Available Table Service                       ,12.999722,77.61612,Lunch Dinner    ,81,5993.0,509.0,3.5,3.233767033,Indian
258,"South Ruchis Square, Organic Fine Dine Restaurant",560001,Indian Asian       ,Vegetarian Friendly Vegan Options  ,Thali                       ,Delivery Takeout Reservations Seating Table Service                        ,12.98402,77.58618,Breakfast Lunch Dinner Brunch  ,24,5993.0,339.0,4.5,3.344396591,Indian
259,The Polo Club (The Oberoi),560001,Bar European       ,Vegetarian Friendly Vegan Options Gluten Free Options ,Sandwiches Burger Tapas Salad Fish                   ,Reservations Outdoor Seating Seating Parking Available Validated Parking Valet Parking Television Wheelchair Accessible Serves Alcohol Full Bar Table Service Live Music                 ,12.9736,77.618355,Lunch Dinner Late Night Drinks  ,223,5993.0,66.0,4.5,4.407150745,European
260,FARMLORE,562149,        ,Vegetarian Friendly   ,                       ,Reservations Seating Accepts Credit Cards Table Service                         ,13.127347,77.639465,Dinner     ,17,5993.0,543.0,4.5,3.223730087,Generic
261,GYLT,560077,Italian American European Asian Grill Healthy   ,   ,                       ,Reservations Outdoor Seating Seating Valet Parking Free off-street parking Wheelchair Accessible Serves Alcohol Wine and Beer Digital Payments Free Wifi Accepts Credit Cards Table Service Live Music                ,13.05822,77.67198,Dinner Late Night Drinks   ,46,76.0,11.0,4.5,3.582976103,Asian
262,Malgudi Tiffin Centre,562110,Indian Asian       ,Vegetarian Friendly Vegan Options  ,Curry Thali                      ,Takeout Seating Wheelchair Accessible Table Service                         ,13.200833,77.70864,Breakfast Lunch Dinner Brunch  ,144,5993.0,735.0,3.5,3.158879995,Indian
263,Vembanad,560071,Indian Seafood       ,Vegetarian Friendly Vegan Options  ,Curry Prawns Beef Fish Fish Curry                   ,Delivery Takeout Reservations Seating Parking Available Validated Parking Valet Parking Serves Alcohol Table Service                    ,12.953633,77.639244,Breakfast Lunch Dinner Late Night  ,132,5993.0,88.0,4.5,4.15319252,Indian
264,Roxie,560102,Italian Indian European Asian     ,   ,                       ,Takeout Reservations Outdoor Seating Private Dining Seating Valet Parking Highchairs Available Serves Alcohol Full Bar Wine and Beer Accepts American Express Accepts Mastercard Accepts Visa Digital Payments Cash Only Accepts Credit Cards             ,12.915209,77.66582,Lunch Dinner Drinks   ,6,5993.0,1906.0,3.5,3.050477266,Indian
265,Mavalli Tiffin Room (MTR),560037,Indian Asian       ,Vegetarian Friendly Vegan Options Gluten Free Options ,Juice & Smoothies Thali                      ,Takeout Seating Table Service                          ,12.980563,77.64064,Breakfast Lunch Dinner Brunch  ,193,5993.0,200.0,4.0,3.590518236,Indian
266,Red Rhino Craft Brewery and Inspired Kitchen,560067,Brew Pub Asian       ,Vegetarian Friendly Vegan Options  ,Burger Tapas Chili Nachos Curry Prawns Fish Paneer                ,Takeout Reservations Outdoor Seating Buffet Private Dining Seating Parking Available Validated Parking Valet Parking Television Highchairs Available Serves Alcohol Full Bar Wine and Beer Free Wifi Accepts Credit Cards Table Service Live Music Waterfront Family style         ,13.024822,77.76136,Lunch Dinner Brunch Late Night Drinks ,285,5993.0,26.0,4.5,4.775425434,Asian
